[
  {
    "name": "Goroka Airport",
    "iata_code": "GKA",
    "icao_code": "AYGA",
    "city": "Goroka",
    "country": "PG",
    "country_name": "\\N",
    "latitude": -6.081689834590001,
    "longitude": 145.391998291,
    "elevation_ft": 5282,
    "timezone": "Pacific/Port_Moresby",
    "dst": "U",
    "type": "small_airport",
    "status": "active"
  },
  {
    "name": "Madang Airport",
    "iata_code": "MAG",
    "icao_code": "AYMD",
    "city": "Madang",
    "country": "PG",
    "country_name": "\\N",
    "latitude": -5.20707988739,
    "longitude": 145.789001465,
    "elevation_ft": 20,
    "timezone": "Pacific/Port_Moresby",
    "dst": "U",
    "type": "small_airport",
    "status": "active"
  },
  {
    "name": "Mount Hagen Kagamuga Airport",
    "iata_code": "HGU",
    "icao_code": "AYMH",
    "city": "Mount Hagen",
    "country": "PG",
    "country_name": "\\N",
    "latitude": -5.826789855957031,
    "longitude": 144.29600524902344,
    "elevation_ft": 5388,
    "timezone": "Pacific/Port_Moresby",
    "dst": "U",
    "type": "small_airport",
    "status": "active"
  },
  {
    "name": "Nadzab Airport",
    "iata_code": "LAE",
    "icao_code": "AYNZ",
    "city": "Nadzab",
    "country": "PG",
    "country_name": "\\N",
    "latitude": -6.569803,
    "longitude": 146.725977,
    "elevation_ft": 239,
    "timezone": "Pacific/Port_Moresby",
    "dst": "U",
    "type": "small_airport",
    "status": "active"
  },
  {
    "name": "Port Moresby Jacksons International Airport",
    "iata_code": "POM",
    "icao_code": "AYPY",
    "city": "Port Moresby",
    "country": "PG",
    "country_name": "\\N",
    "latitude": -9.443380355834961,
    "longitude": 147.22000122070312,
    "elevation_ft": 146,
    "timezone": "Pacific/Port_Moresby",
    "dst": "U",
    "type": "large_airport",
    "status": "active"
  },
  {
    "name": "Wewak International Airport",
    "iata_code": "WWK",
    "icao_code": "AYWK",
    "city": "Wewak",
    "country": "PG",
    "country_name": "\\N",
    "latitude": -3.58383011818,
    "longitude": 143.669006348,
    "elevation_ft": 19,
    "timezone": "Pacific/Port_Moresby",
    "dst": "U",
    "type": "large_airport",
    "status": "active"
  },
  {
    "name": "Narsarsuaq Airport",
    "iata_code": "UAK",
    "icao_code": "BGBW",
    "city": "Narssarssuaq",
    "country": "GL",
    "country_name": "GL",
    "latitude": 61.1604995728,
    "longitude": -45.4259986877,
    "elevation_ft": 112,
    "timezone": "America/Godthab",
    "dst": "E",
    "type": "small_airport",
    "status": "active"
  },
  {
    "name": "Godthaab / Nuuk Airport",
    "iata_code": "GOH",
    "icao_code": "BGGH",
    "city": "Godthaab",
    "country": "GL",
    "country_name": "GL",
    "latitude": 64.19090271,
    "longitude": -51.6781005859,
    "elevation_ft": 283,
    "timezone": "America/Godthab",
    "dst": "E",
    "type": "small_airport",
    "status": "active"
  },
  {
    "name": "Kangerlussuaq Airport",
    "iata_code": "SFJ",
    "icao_code": "BGSF",
    "city": "Sondrestrom",
    "country": "GL",
    "country_name": "GL",
    "latitude": 67.0122218992,
    "longitude": -50.7116031647,
    "elevation_ft": 165,
    "timezone": "America/Godthab",
    "dst": "E",
    "type": "small_airport",
    "status": "active"
  },
  {
    "name": "Thule Air Base",
    "iata_code": "THU",
    "icao_code": "BGTL",
    "city": "Thule",
    "country": "GL",
    "country_name": "GL",
    "latitude": 76.5311965942,
    "longitude": -68.7032012939,
    "elevation_ft": 251,
    "timezone": "America/Thule",
    "dst": "E",
    "type": "small_airport",
    "status": "active"
  },
  {
    "name": "Akureyri Airport",
    "iata_code": "AEY",
    "icao_code": "BIAR",
    "city": "Akureyri",
    "country": "XX",
    "country_name": "Iceland",
    "latitude": 65.66000366210938,
    "longitude": -18.07270050048828,
    "elevation_ft": 6,
    "timezone": "Atlantic/Reykjavik",
    "dst": "N",
    "type": "small_airport",
    "status": "active"
  },
  {
    "name": "Egilsstaðir Airport",
    "iata_code": "EGS",
    "icao_code": "BIEG",
    "city": "Egilsstadir",
    "country": "XX",
    "country_name": "Iceland",
    "latitude": 65.2833023071289,
    "longitude": -14.401399612426758,
    "elevation_ft": 76,
    "timezone": "Atlantic/Reykjavik",
    "dst": "N",
    "type": "small_airport",
    "status": "active"
  },
  {
    "name": "Hornafjörður Airport",
    "iata_code": "HFN",
    "icao_code": "BIHN",
    "city": "Hofn",
    "country": "XX",
    "country_name": "Iceland",
    "latitude": 64.295601,
    "longitude": -15.2272,
    "elevation_ft": 24,
    "timezone": "Atlantic/Reykjavik",
    "dst": "N",
    "type": "small_airport",
    "status": "active"
  },
  {
    "name": "Húsavík Airport",
    "iata_code": "HZK",
    "icao_code": "BIHU",
    "city": "Husavik",
    "country": "XX",
    "country_name": "Iceland",
    "latitude": 65.952301,
    "longitude": -17.426001,
    "elevation_ft": 48,
    "timezone": "Atlantic/Reykjavik",
    "dst": "N",
    "type": "small_airport",
    "status": "active"
  },
  {
    "name": "Ísafjörður Airport",
    "iata_code": "IFJ",
    "icao_code": "BIIS",
    "city": "Isafjordur",
    "country": "XX",
    "country_name": "Iceland",
    "latitude": 66.05809783935547,
    "longitude": -23.135299682617188,
    "elevation_ft": 8,
    "timezone": "Atlantic/Reykjavik",
    "dst": "N",
    "type": "small_airport",
    "status": "active"
  },
  {
    "name": "Keflavik International Airport",
    "iata_code": "KEF",
    "icao_code": "BIKF",
    "city": "Keflavik",
    "country": "XX",
    "country_name": "Iceland",
    "latitude": 63.985000610352,
    "longitude": -22.605600357056,
    "elevation_ft": 171,
    "timezone": "Atlantic/Reykjavik",
    "dst": "N",
    "type": "large_airport",
    "status": "active"
  },
  {
    "name": "Patreksfjörður Airport",
    "iata_code": "PFJ",
    "icao_code": "BIPA",
    "city": "Patreksfjordur",
    "country": "XX",
    "country_name": "Iceland",
    "latitude": 65.555801,
    "longitude": -23.965,
    "elevation_ft": 11,
    "timezone": "Atlantic/Reykjavik",
    "dst": "N",
    "type": "small_airport",
    "status": "active"
  },
  {
    "name": "Reykjavik Airport",
    "iata_code": "RKV",
    "icao_code": "BIRK",
    "city": "Reykjavik",
    "country": "XX",
    "country_name": "Iceland",
    "latitude": 64.1299972534,
    "longitude": -21.9405994415,
    "elevation_ft": 48,
    "timezone": "Atlantic/Reykjavik",
    "dst": "N",
    "type": "small_airport",
    "status": "active"
  },
  {
    "name": "Siglufjörður Airport",
    "iata_code": "SIJ",
    "icao_code": "BISI",
    "city": "Siglufjordur",
    "country": "XX",
    "country_name": "Iceland",
    "latitude": 66.133301,
    "longitude": -18.9167,
    "elevation_ft": 10,
    "timezone": "Atlantic/Reykjavik",
    "dst": "N",
    "type": "small_airport",
    "status": "active"
  },
  {
    "name": "Vestmannaeyjar Airport",
    "iata_code": "VEY",
    "icao_code": "BIVM",
    "city": "Vestmannaeyjar",
    "country": "XX",
    "country_name": "Iceland",
    "latitude": 63.42430114746094,
    "longitude": -20.278900146484375,
    "elevation_ft": 326,
    "timezone": "Atlantic/Reykjavik",
    "dst": "N",
    "type": "small_airport",
    "status": "active"
  },
  {
    "name": "Sault Ste Marie Airport",
    "iata_code": "YAM",
    "icao_code": "CYAM",
    "city": "Sault Sainte Marie",
    "country": "CA",
    "country_name": "CA",
    "latitude": 46.48500061035156,
    "longitude": -84.5093994140625,
    "elevation_ft": 630,
    "timezone": "America/Toronto",
    "dst": "A",
    "type": "small_airport",
    "status": "active"
  },
  {
    "name": "Winnipeg / St. Andrews Airport",
    "iata_code": "\\N",
    "icao_code": "CYAV",
    "city": "Winnipeg",
    "country": "CA",
    "country_name": "CA",
    "latitude": 50.0564002991,
    "longitude": -97.03250122070001,
    "elevation_ft": 760,
    "timezone": "America/Winnipeg",
    "dst": "A",
    "type": "small_airport",
    "status": "active"
  },
  {
    "name": "Halifax / CFB Shearwater Heliport",
    "iata_code": "\\N",
    "icao_code": "CYAW",
    "city": "Halifax",
    "country": "CA",
    "country_name": "CA",
    "latitude": 44.639702,
    "longitude": -63.499401,
    "elevation_ft": 144,
    "timezone": "America/Halifax",
    "dst": "A",
    "type": "small_airport",
    "status": "active"
  },
  {
    "name": "St. Anthony Airport",
    "iata_code": "YAY",
    "icao_code": "CYAY",
    "city": "St. Anthony",
    "country": "CA",
    "country_name": "CA",
    "latitude": 51.3918991089,
    "longitude": -56.083099365200006,
    "elevation_ft": 108,
    "timezone": "America/St_Johns",
    "dst": "A",
    "type": "small_airport",
    "status": "active"
  },
  {
    "name": "Tofino / Long Beach Airport",
    "iata_code": "YAZ",
    "icao_code": "CYAZ",
    "city": "Tofino",
    "country": "CA",
    "country_name": "CA",
    "latitude": 49.079833,
    "longitude": -125.775583,
    "elevation_ft": 80,
    "timezone": "America/Vancouver",
    "dst": "A",
    "type": "small_airport",
    "status": "active"
  },
  {
    "name": "Kugaaruk Airport",
    "iata_code": "YBB",
    "icao_code": "CYBB",
    "city": "Pelly Bay",
    "country": "CA",
    "country_name": "CA",
    "latitude": 68.534401,
    "longitude": -89.808098,
    "elevation_ft": 56,
    "timezone": "America/Edmonton",
    "dst": "A",
    "type": "small_airport",
    "status": "active"
  },
  {
    "name": "Baie Comeau Airport",
    "iata_code": "YBC",
    "icao_code": "CYBC",
    "city": "Baie Comeau",
    "country": "CA",
    "country_name": "CA",
    "latitude": 49.13249969482422,
    "longitude": -68.20439910888672,
    "elevation_ft": 71,
    "timezone": "America/Toronto",
    "dst": "A",
    "type": "small_airport",
    "status": "active"
  },
  {
    "name": "CFB Bagotville",
    "iata_code": "YBG",
    "icao_code": "CYBG",
    "city": "Bagotville",
    "country": "CA",
    "country_name": "CA",
    "latitude": 48.33060073852539,
    "longitude": -70.99639892578125,
    "elevation_ft": 522,
    "timezone": "America/Toronto",
    "dst": "A",
    "type": "small_airport",
    "status": "active"
  },
  {
    "name": "Baker Lake Airport",
    "iata_code": "YBK",
    "icao_code": "CYBK",
    "city": "Baker Lake",
    "country": "CA",
    "country_name": "CA",
    "latitude": 64.29889678960001,
    "longitude": -96.077796936,
    "elevation_ft": 59,
    "timezone": "America/Winnipeg",
    "dst": "A",
    "type": "small_airport",
    "status": "active"
  },
  {
    "name": "Campbell River Airport",
    "iata_code": "YBL",
    "icao_code": "CYBL",
    "city": "Campbell River",
    "country": "CA",
    "country_name": "CA",
    "latitude": 49.950801849365234,
    "longitude": -125.27100372314453,
    "elevation_ft": 346,
    "timezone": "America/Vancouver",
    "dst": "A",
    "type": "small_airport",
    "status": "active"
  },
  {
    "name": "Brandon Municipal Airport",
    "iata_code": "YBR",
    "icao_code": "CYBR",
    "city": "Brandon",
    "country": "CA",
    "country_name": "CA",
    "latitude": 49.91,
    "longitude": -99.951897,
    "elevation_ft": 1343,
    "timezone": "America/Winnipeg",
    "dst": "A",
    "type": "medium_airport",
    "status": "active"
  },
  {
    "name": "Cambridge Bay Airport",
    "iata_code": "YCB",
    "icao_code": "CYCB",
    "city": "Cambridge Bay",
    "country": "CA",
    "country_name": "CA",
    "latitude": 69.1081008911,
    "longitude": -105.138000488,
    "elevation_ft": 90,
    "timezone": "America/Edmonton",
    "dst": "A",
    "type": "small_airport",
    "status": "active"
  },
  {
    "name": "Nanaimo Airport",
    "iata_code": "YCD",
    "icao_code": "CYCD",
    "city": "Nanaimo",
    "country": "CA",
    "country_name": "CA",
    "latitude": 49.054970224899996,
    "longitude": -123.869862556,
    "elevation_ft": 92,
    "timezone": "America/Vancouver",
    "dst": "A",
    "type": "small_airport",
    "status": "active"
  },
  {
    "name": "Castlegar/West Kootenay Regional Airport",
    "iata_code": "YCG",
    "icao_code": "CYCG",
    "city": "Castlegar",
    "country": "CA",
    "country_name": "CA",
    "latitude": 49.2963981628,
    "longitude": -117.632003784,
    "elevation_ft": 1624,
    "timezone": "America/Vancouver",
    "dst": "A",
    "type": "medium_airport",
    "status": "active"
  },
  {
    "name": "Miramichi Airport",
    "iata_code": "YCH",
    "icao_code": "CYCH",
    "city": "Chatham",
    "country": "CA",
    "country_name": "CA",
    "latitude": 47.007801,
    "longitude": -65.449203,
    "elevation_ft": 108,
    "timezone": "America/Halifax",
    "dst": "A",
    "type": "small_airport",
    "status": "active"
  },
  {
    "name": "Charlo Airport",
    "iata_code": "YCL",
    "icao_code": "CYCL",
    "city": "Charlo",
    "country": "CA",
    "country_name": "CA",
    "latitude": 47.990799,
    "longitude": -66.330299,
    "elevation_ft": 132,
    "timezone": "America/Halifax",
    "dst": "A",
    "type": "small_airport",
    "status": "active"
  },
  {
    "name": "Kugluktuk Airport",
    "iata_code": "YCO",
    "icao_code": "CYCO",
    "city": "Coppermine",
    "country": "CA",
    "country_name": "CA",
    "latitude": 67.816704,
    "longitude": -115.143997,
    "elevation_ft": 74,
    "timezone": "America/Edmonton",
    "dst": "A",
    "type": "small_airport",
    "status": "active"
  },
  {
    "name": "Coronation Airport",
    "iata_code": "YCT",
    "icao_code": "CYCT",
    "city": "Coronation",
    "country": "CA",
    "country_name": "CA",
    "latitude": 52.0750007629,
    "longitude": -111.444999695,
    "elevation_ft": 2595,
    "timezone": "America/Edmonton",
    "dst": "A",
    "type": "small_airport",
    "status": "active"
  },
  {
    "name": "Chilliwack Airport",
    "iata_code": "YCW",
    "icao_code": "CYCW",
    "city": "Chilliwack",
    "country": "CA",
    "country_name": "CA",
    "latitude": 49.1528015137,
    "longitude": -121.939002991,
    "elevation_ft": 32,
    "timezone": "America/Vancouver",
    "dst": "A",
    "type": "small_airport",
    "status": "active"
  },
  {
    "name": "Clyde River Airport",
    "iata_code": "YCY",
    "icao_code": "CYCY",
    "city": "Clyde River",
    "country": "CA",
    "country_name": "CA",
    "latitude": 70.4860992432,
    "longitude": -68.5167007446,
    "elevation_ft": 87,
    "timezone": "America/Toronto",
    "dst": "A",
    "type": "small_airport",
    "status": "active"
  },
  {
    "name": "Coral Harbour Airport",
    "iata_code": "YZS",
    "icao_code": "CYZS",
    "city": "Coral Harbour",
    "country": "CA",
    "country_name": "CA",
    "latitude": 64.1932983398,
    "longitude": -83.3593978882,
    "elevation_ft": 210,
    "timezone": "America/Coral_Harbour",
    "dst": "A",
    "type": "small_airport",
    "status": "active"
  },
  {
    "name": "Dawson City Airport",
    "iata_code": "YDA",
    "icao_code": "CYDA",
    "city": "Dawson",
    "country": "CA",
    "country_name": "CA",
    "latitude": 64.04309844970703,
    "longitude": -139.1280059814453,
    "elevation_ft": 1215,
    "timezone": "America/Vancouver",
    "dst": "A",
    "type": "small_airport",
    "status": "active"
  },
  {
    "name": "Burwash Airport",
    "iata_code": "YDB",
    "icao_code": "CYDB",
    "city": "Burwash",
    "country": "CA",
    "country_name": "CA",
    "latitude": 61.37110137939453,
    "longitude": -139.04100036621094,
    "elevation_ft": 2647,
    "timezone": "America/Vancouver",
    "dst": "A",
    "type": "small_airport",
    "status": "active"
  },
  {
    "name": "Princeton Airport",
    "iata_code": "\\N",
    "icao_code": "CYDC",
    "city": "Princeton",
    "country": "CA",
    "country_name": "CA",
    "latitude": 49.4681015015,
    "longitude": -120.511001587,
    "elevation_ft": 2298,
    "timezone": "America/Vancouver",
    "dst": "A",
    "type": "small_airport",
    "status": "active"
  },
  {
    "name": "Deer Lake Airport",
    "iata_code": "YDF",
    "icao_code": "CYDF",
    "city": "Deer Lake",
    "country": "CA",
    "country_name": "CA",
    "latitude": 49.21080017089844,
    "longitude": -57.39139938354492,
    "elevation_ft": 72,
    "timezone": "America/St_Johns",
    "dst": "A",
    "type": "small_airport",
    "status": "active"
  },
  {
    "name": "Dease Lake Airport",
    "iata_code": "YDL",
    "icao_code": "CYDL",
    "city": "Dease Lake",
    "country": "CA",
    "country_name": "CA",
    "latitude": 58.4221992493,
    "longitude": -130.031997681,
    "elevation_ft": 2600,
    "timezone": "America/Vancouver",
    "dst": "A",
    "type": "small_airport",
    "status": "active"
  },
  {
    "name": "Dauphin Barker Airport",
    "iata_code": "YDN",
    "icao_code": "CYDN",
    "city": "Dauphin",
    "country": "CA",
    "country_name": "CA",
    "latitude": 51.100799560546875,
    "longitude": -100.052001953125,
    "elevation_ft": 999,
    "timezone": "America/Winnipeg",
    "dst": "A",
    "type": "small_airport",
    "status": "active"
  },
  {
    "name": "Dawson Creek Airport",
    "iata_code": "YDQ",
    "icao_code": "CYDQ",
    "city": "Dawson Creek",
    "country": "CA",
    "country_name": "CA",
    "latitude": 55.7422981262207,
    "longitude": -120.18299865722656,
    "elevation_ft": 2148,
    "timezone": "America/Dawson_Creek",
    "dst": "A",
    "type": "small_airport",
    "status": "active"
  },
  {
    "name": "Edmonton International Airport",
    "iata_code": "YEG",
    "icao_code": "CYEG",
    "city": "Edmonton",
    "country": "CA",
    "country_name": "CA",
    "latitude": 53.309700012200004,
    "longitude": -113.580001831,
    "elevation_ft": 2373,
    "timezone": "America/Edmonton",
    "dst": "A",
    "type": "large_airport",
    "status": "active"
  },
  {
    "name": "Arviat Airport",
    "iata_code": "YEK",
    "icao_code": "CYEK",
    "city": "Eskimo Point",
    "country": "CA",
    "country_name": "CA",
    "latitude": 61.0942001343,
    "longitude": -94.07080078119999,
    "elevation_ft": 32,
    "timezone": "America/Winnipeg",
    "dst": "A",
    "type": "small_airport",
    "status": "active"
  },
  {
    "name": "Estevan Airport",
    "iata_code": "YEN",
    "icao_code": "CYEN",
    "city": "Estevan",
    "country": "CA",
    "country_name": "CA",
    "latitude": 49.2103004456,
    "longitude": -102.966003418,
    "elevation_ft": 1905,
    "timezone": "America/Regina",
    "dst": "N",
    "type": "small_airport",
    "status": "active"
  },
  {
    "name": "Edson Airport",
    "iata_code": "YET",
    "icao_code": "CYET",
    "city": "Edson",
    "country": "CA",
    "country_name": "CA",
    "latitude": 53.578899383499994,
    "longitude": -116.464996338,
    "elevation_ft": 3043,
    "timezone": "America/Edmonton",
    "dst": "A",
    "type": "small_airport",
    "status": "active"
  },
  {
    "name": "Eureka Airport",
    "iata_code": "YEU",
    "icao_code": "CYEU",
    "city": "Eureka",
    "country": "CA",
    "country_name": "CA",
    "latitude": 79.9946975708,
    "longitude": -85.814201355,
    "elevation_ft": 256,
    "timezone": "America/Winnipeg",
    "dst": "A",
    "type": "small_airport",
    "status": "active"
  },
  {
    "name": "Inuvik Mike Zubko Airport",
    "iata_code": "YEV",
    "icao_code": "CYEV",
    "city": "Inuvik",
    "country": "CA",
    "country_name": "CA",
    "latitude": 68.30419921880001,
    "longitude": -133.483001709,
    "elevation_ft": 224,
    "timezone": "America/Edmonton",
    "dst": "A",
    "type": "small_airport",
    "status": "active"
  },
  {
    "name": "Iqaluit Airport",
    "iata_code": "YFB",
    "icao_code": "CYFB",
    "city": "Iqaluit",
    "country": "CA",
    "country_name": "CA",
    "latitude": 63.756402,
    "longitude": -68.555801,
    "elevation_ft": 110,
    "timezone": "America/Toronto",
    "dst": "A",
    "type": "small_airport",
    "status": "active"
  },
  {
    "name": "Fredericton Airport",
    "iata_code": "YFC",
    "icao_code": "CYFC",
    "city": "Fredericton",
    "country": "CA",
    "country_name": "CA",
    "latitude": 45.868900299072266,
    "longitude": -66.53720092773438,
    "elevation_ft": 68,
    "timezone": "America/Halifax",
    "dst": "A",
    "type": "small_airport",
    "status": "active"
  },
  {
    "name": "Forestville Airport",
    "iata_code": "YFE",
    "icao_code": "CYFE",
    "city": "Forestville",
    "country": "CA",
    "country_name": "CA",
    "latitude": 48.74610137939453,
    "longitude": -69.09719848632812,
    "elevation_ft": 293,
    "timezone": "America/Toronto",
    "dst": "A",
    "type": "small_airport",
    "status": "active"
  },
  {
    "name": "Flin Flon Airport",
    "iata_code": "YFO",
    "icao_code": "CYFO",
    "city": "Flin Flon",
    "country": "CA",
    "country_name": "CA",
    "latitude": 54.6781005859375,
    "longitude": -101.68199920654297,
    "elevation_ft": 997,
    "timezone": "America/Winnipeg",
    "dst": "A",
    "type": "small_airport",
    "status": "active"
  },
  {
    "name": "Fort Resolution Airport",
    "iata_code": "YFR",
    "icao_code": "CYFR",
    "city": "Fort Resolution",
    "country": "CA",
    "country_name": "CA",
    "latitude": 61.1808013916,
    "longitude": -113.690002441,
    "elevation_ft": 526,
    "timezone": "America/Edmonton",
    "dst": "A",
    "type": "small_airport",
    "status": "active"
  },
  {
    "name": "Fort Simpson Airport",
    "iata_code": "YFS",
    "icao_code": "CYFS",
    "city": "Fort Simpson",
    "country": "CA",
    "country_name": "CA",
    "latitude": 61.76020050048828,
    "longitude": -121.23699951171875,
    "elevation_ft": 555,
    "timezone": "America/Edmonton",
    "dst": "A",
    "type": "small_airport",
    "status": "active"
  },
  {
    "name": "Kingston Norman Rogers Airport",
    "iata_code": "YGK",
    "icao_code": "CYGK",
    "city": "Kingston",
    "country": "CA",
    "country_name": "CA",
    "latitude": 44.22529983520508,
    "longitude": -76.5969009399414,
    "elevation_ft": 305,
    "timezone": "America/Toronto",
    "dst": "A",
    "type": "small_airport",
    "status": "active"
  },
  {
    "name": "La Grande Rivière Airport",
    "iata_code": "YGL",
    "icao_code": "CYGL",
    "city": "La Grande Riviere",
    "country": "CA",
    "country_name": "CA",
    "latitude": 53.625301361083984,
    "longitude": -77.7042007446289,
    "elevation_ft": 639,
    "timezone": "America/Toronto",
    "dst": "A",
    "type": "small_airport",
    "status": "active"
  },
  {
    "name": "Gaspé (Michel-Pouliot) Airport",
    "iata_code": "YGP",
    "icao_code": "CYGP",
    "city": "Gaspe",
    "country": "CA",
    "country_name": "CA",
    "latitude": 48.7752990723,
    "longitude": -64.4785995483,
    "elevation_ft": 112,
    "timezone": "America/Toronto",
    "dst": "A",
    "type": "small_airport",
    "status": "active"
  },
  {
    "name": "Geraldton Greenstone Regional Airport",
    "iata_code": "YGQ",
    "icao_code": "CYGQ",
    "city": "Geraldton",
    "country": "CA",
    "country_name": "CA",
    "latitude": 49.77830123901367,
    "longitude": -86.93939971923828,
    "elevation_ft": 1144,
    "timezone": "America/Toronto",
    "dst": "A",
    "type": "medium_airport",
    "status": "active"
  },
  {
    "name": "Îles-de-la-Madeleine Airport",
    "iata_code": "YGR",
    "icao_code": "CYGR",
    "city": "Iles De La Madeleine",
    "country": "CA",
    "country_name": "CA",
    "latitude": 47.42470169067383,
    "longitude": -61.778099060058594,
    "elevation_ft": 35,
    "timezone": "America/Toronto",
    "dst": "A",
    "type": "small_airport",
    "status": "active"
  },
  {
    "name": "Hudson Bay Airport",
    "iata_code": "YHB",
    "icao_code": "CYHB",
    "city": "Hudson Bay",
    "country": "CA",
    "country_name": "CA",
    "latitude": 52.8166999817,
    "longitude": -102.310997009,
    "elevation_ft": 1175,
    "timezone": "America/Regina",
    "dst": "N",
    "type": "small_airport",
    "status": "active"
  },
  {
    "name": "Dryden Regional Airport",
    "iata_code": "YHD",
    "icao_code": "CYHD",
    "city": "Dryden",
    "country": "CA",
    "country_name": "CA",
    "latitude": 49.831699,
    "longitude": -92.744202,
    "elevation_ft": 1354,
    "timezone": "America/Winnipeg",
    "dst": "A",
    "type": "medium_airport",
    "status": "active"
  },
  {
    "name": "Ulukhaktok Holman Airport",
    "iata_code": "YHI",
    "icao_code": "CYHI",
    "city": "Holman Island",
    "country": "CA",
    "country_name": "CA",
    "latitude": 70.76280212402344,
    "longitude": -117.80599975585938,
    "elevation_ft": 117,
    "timezone": "America/Edmonton",
    "dst": "A",
    "type": "small_airport",
    "status": "active"
  },
  {
    "name": "Gjoa Haven Airport",
    "iata_code": "YHK",
    "icao_code": "CYHK",
    "city": "Gjoa Haven",
    "country": "CA",
    "country_name": "CA",
    "latitude": 68.635597229,
    "longitude": -95.84970092770001,
    "elevation_ft": 152,
    "timezone": "America/Edmonton",
    "dst": "A",
    "type": "small_airport",
    "status": "active"
  },
  {
    "name": "John C. Munro Hamilton International Airport",
    "iata_code": "YHM",
    "icao_code": "CYHM",
    "city": "Hamilton",
    "country": "CA",
    "country_name": "CA",
    "latitude": 43.173599243199995,
    "longitude": -79.93499755859999,
    "elevation_ft": 780,
    "timezone": "America/Toronto",
    "dst": "A",
    "type": "large_airport",
    "status": "active"
  },
  {
    "name": "Montréal / Saint-Hubert Airport",
    "iata_code": "YHU",
    "icao_code": "CYHU",
    "city": "Montreal",
    "country": "CA",
    "country_name": "CA",
    "latitude": 45.5175018311,
    "longitude": -73.4169006348,
    "elevation_ft": 90,
    "timezone": "America/Toronto",
    "dst": "A",
    "type": "small_airport",
    "status": "active"
  },
  {
    "name": "Hay River / Merlyn Carter Airport",
    "iata_code": "YHY",
    "icao_code": "CYHY",
    "city": "Hay River",
    "country": "CA",
    "country_name": "CA",
    "latitude": 60.8396987915,
    "longitude": -115.782997131,
    "elevation_ft": 541,
    "timezone": "America/Edmonton",
    "dst": "A",
    "type": "small_airport",
    "status": "active"
  },
  {
    "name": "Halifax / Stanfield International Airport",
    "iata_code": "YHZ",
    "icao_code": "CYHZ",
    "city": "Halifax",
    "country": "CA",
    "country_name": "CA",
    "latitude": 44.8807983398,
    "longitude": -63.5085983276,
    "elevation_ft": 477,
    "timezone": "America/Halifax",
    "dst": "A",
    "type": "large_airport",
    "status": "active"
  },
  {
    "name": "Atikokan Municipal Airport",
    "iata_code": "YIB",
    "icao_code": "CYIB",
    "city": "Atikokan",
    "country": "CA",
    "country_name": "CA",
    "latitude": 48.7738990784,
    "longitude": -91.6386032104,
    "elevation_ft": 1408,
    "timezone": "America/Coral_Harbour",
    "dst": "A",
    "type": "medium_airport",
    "status": "active"
  },
  {
    "name": "Pond Inlet Airport",
    "iata_code": "YIO",
    "icao_code": "CYIO",
    "city": "Pond Inlet",
    "country": "CA",
    "country_name": "CA",
    "latitude": 72.6832962036,
    "longitude": -77.9666976929,
    "elevation_ft": 181,
    "timezone": "America/Toronto",
    "dst": "A",
    "type": "small_airport",
    "status": "active"
  },
  {
    "name": "St Jean Airport",
    "iata_code": "YJN",
    "icao_code": "CYJN",
    "city": "St. Jean",
    "country": "CA",
    "country_name": "CA",
    "latitude": 45.29439926147461,
    "longitude": -73.28109741210938,
    "elevation_ft": 136,
    "timezone": "America/Toronto",
    "dst": "A",
    "type": "small_airport",
    "status": "active"
  },
  {
    "name": "Stephenville Airport",
    "iata_code": "YJT",
    "icao_code": "CYJT",
    "city": "Stephenville",
    "country": "CA",
    "country_name": "CA",
    "latitude": 48.5442008972168,
    "longitude": -58.54999923706055,
    "elevation_ft": 84,
    "timezone": "America/St_Johns",
    "dst": "A",
    "type": "small_airport",
    "status": "active"
  },
  {
    "name": "Kamloops Airport",
    "iata_code": "YKA",
    "icao_code": "CYKA",
    "city": "Kamloops",
    "country": "CA",
    "country_name": "CA",
    "latitude": 50.7022018433,
    "longitude": -120.444000244,
    "elevation_ft": 1133,
    "timezone": "America/Vancouver",
    "dst": "A",
    "type": "small_airport",
    "status": "active"
  },
  {
    "name": "Waterloo Airport",
    "iata_code": "YKF",
    "icao_code": "CYKF",
    "city": "Waterloo",
    "country": "CA",
    "country_name": "CA",
    "latitude": 43.460800170899994,
    "longitude": -80.3786010742,
    "elevation_ft": 1055,
    "timezone": "America/Toronto",
    "dst": "A",
    "type": "small_airport",
    "status": "active"
  },
  {
    "name": "Schefferville Airport",
    "iata_code": "YKL",
    "icao_code": "CYKL",
    "city": "Schefferville",
    "country": "CA",
    "country_name": "CA",
    "latitude": 54.805301666259766,
    "longitude": -66.8052978515625,
    "elevation_ft": 1709,
    "timezone": "America/Toronto",
    "dst": "A",
    "type": "small_airport",
    "status": "active"
  },
  {
    "name": "Kindersley Airport",
    "iata_code": "YKY",
    "icao_code": "CYKY",
    "city": "Kindersley",
    "country": "CA",
    "country_name": "CA",
    "latitude": 51.5175018311,
    "longitude": -109.180999756,
    "elevation_ft": 2277,
    "timezone": "America/Regina",
    "dst": "N",
    "type": "small_airport",
    "status": "active"
  },
  {
    "name": "Buttonville Municipal Airport",
    "iata_code": "YKZ",
    "icao_code": "CYKZ",
    "city": "Toronto",
    "country": "CA",
    "country_name": "CA",
    "latitude": 43.86220169067383,
    "longitude": -79.37000274658203,
    "elevation_ft": 650,
    "timezone": "America/Toronto",
    "dst": "A",
    "type": "medium_airport",
    "status": "active"
  },
  {
    "name": "Chapleau Airport",
    "iata_code": "YLD",
    "icao_code": "CYLD",
    "city": "Chapleau",
    "country": "CA",
    "country_name": "CA",
    "latitude": 47.81999969482422,
    "longitude": -83.3467025756836,
    "elevation_ft": 1470,
    "timezone": "America/Toronto",
    "dst": "A",
    "type": "small_airport",
    "status": "active"
  },
  {
    "name": "Meadow Lake Airport",
    "iata_code": "YLJ",
    "icao_code": "CYLJ",
    "city": "Meadow Lake",
    "country": "CA",
    "country_name": "CA",
    "latitude": 54.125301361083984,
    "longitude": -108.52300262451172,
    "elevation_ft": 1576,
    "timezone": "America/Regina",
    "dst": "N",
    "type": "small_airport",
    "status": "active"
  },
  {
    "name": "Lloydminster Airport",
    "iata_code": "YLL",
    "icao_code": "CYLL",
    "city": "Lloydminster",
    "country": "CA",
    "country_name": "CA",
    "latitude": 53.309200286865234,
    "longitude": -110.072998046875,
    "elevation_ft": 2193,
    "timezone": "America/Edmonton",
    "dst": "A",
    "type": "small_airport",
    "status": "active"
  },
  {
    "name": "Alert Airport",
    "iata_code": "YLT",
    "icao_code": "CYLT",
    "city": "Alert",
    "country": "CA",
    "country_name": "CA",
    "latitude": 82.51779937740001,
    "longitude": -62.2806015015,
    "elevation_ft": 100,
    "timezone": "America/Toronto",
    "dst": "A",
    "type": "small_airport",
    "status": "active"
  },
  {
    "name": "Kelowna International Airport",
    "iata_code": "YLW",
    "icao_code": "CYLW",
    "city": "Kelowna",
    "country": "CA",
    "country_name": "CA",
    "latitude": 49.9561004639,
    "longitude": -119.377998352,
    "elevation_ft": 1421,
    "timezone": "America/Vancouver",
    "dst": "A",
    "type": "large_airport",
    "status": "active"
  },
  {
    "name": "Mayo Airport",
    "iata_code": "YMA",
    "icao_code": "CYMA",
    "city": "Mayo",
    "country": "CA",
    "country_name": "CA",
    "latitude": 63.61640167236328,
    "longitude": -135.8679962158203,
    "elevation_ft": 1653,
    "timezone": "America/Vancouver",
    "dst": "A",
    "type": "small_airport",
    "status": "active"
  },
  {
    "name": "Moose Jaw Air Vice Marshal C. M. McEwen Airport",
    "iata_code": "YMJ",
    "icao_code": "CYMJ",
    "city": "Moose Jaw",
    "country": "CA",
    "country_name": "CA",
    "latitude": 50.330299377441406,
    "longitude": -105.55899810791016,
    "elevation_ft": 1892,
    "timezone": "America/Regina",
    "dst": "N",
    "type": "small_airport",
    "status": "active"
  },
  {
    "name": "Fort McMurray Airport",
    "iata_code": "YMM",
    "icao_code": "CYMM",
    "city": "Fort Mcmurray",
    "country": "CA",
    "country_name": "CA",
    "latitude": 56.653301239,
    "longitude": -111.222000122,
    "elevation_ft": 1211,
    "timezone": "America/Edmonton",
    "dst": "A",
    "type": "small_airport",
    "status": "active"
  },
  {
    "name": "Moosonee Airport",
    "iata_code": "YMO",
    "icao_code": "CYMO",
    "city": "Moosonee",
    "country": "CA",
    "country_name": "CA",
    "latitude": 51.291099548339844,
    "longitude": -80.60780334472656,
    "elevation_ft": 30,
    "timezone": "America/Toronto",
    "dst": "A",
    "type": "small_airport",
    "status": "active"
  },
  {
    "name": "Maniwaki Airport",
    "iata_code": "YMW",
    "icao_code": "CYMW",
    "city": "Maniwaki",
    "country": "CA",
    "country_name": "CA",
    "latitude": 46.2728004456,
    "longitude": -75.9906005859,
    "elevation_ft": 656,
    "timezone": "America/Toronto",
    "dst": "A",
    "type": "small_airport",
    "status": "active"
  },
  {
    "name": "Montreal International (Mirabel) Airport",
    "iata_code": "YMX",
    "icao_code": "CYMX",
    "city": "Montreal",
    "country": "CA",
    "country_name": "CA",
    "latitude": 45.679501,
    "longitude": -74.038696,
    "elevation_ft": 270,
    "timezone": "America/Toronto",
    "dst": "A",
    "type": "large_airport",
    "status": "active"
  },
  {
    "name": "Natashquan Airport",
    "iata_code": "YNA",
    "icao_code": "CYNA",
    "city": "Natashquan",
    "country": "CA",
    "country_name": "CA",
    "latitude": 50.189998626708984,
    "longitude": -61.78919982910156,
    "elevation_ft": 39,
    "timezone": "America/Toronto",
    "dst": "A",
    "type": "small_airport",
    "status": "active"
  },
  {
    "name": "Ottawa / Gatineau Airport",
    "iata_code": "YND",
    "icao_code": "CYND",
    "city": "Gatineau",
    "country": "CA",
    "country_name": "CA",
    "latitude": 45.521701812699995,
    "longitude": -75.5635986328,
    "elevation_ft": 211,
    "timezone": "America/Toronto",
    "dst": "A",
    "type": "small_airport",
    "status": "active"
  },
  {
    "name": "Matagami Airport",
    "iata_code": "YNM",
    "icao_code": "CYNM",
    "city": "Matagami",
    "country": "CA",
    "country_name": "CA",
    "latitude": 49.76169967651367,
    "longitude": -77.80280303955078,
    "elevation_ft": 918,
    "timezone": "America/Toronto",
    "dst": "A",
    "type": "small_airport",
    "status": "active"
  },
  {
    "name": "Old Crow Airport",
    "iata_code": "YOC",
    "icao_code": "CYOC",
    "city": "Old Crow",
    "country": "CA",
    "country_name": "CA",
    "latitude": 67.57060241699219,
    "longitude": -139.83900451660156,
    "elevation_ft": 824,
    "timezone": "America/Vancouver",
    "dst": "A",
    "type": "small_airport",
    "status": "active"
  },
  {
    "name": "CFB Cold Lake",
    "iata_code": "YOD",
    "icao_code": "CYOD",
    "city": "Cold Lake",
    "country": "CA",
    "country_name": "CA",
    "latitude": 54.404998779296875,
    "longitude": -110.27899932861328,
    "elevation_ft": 1775,
    "timezone": "America/Edmonton",
    "dst": "A",
    "type": "small_airport",
    "status": "active"
  },
  {
    "name": "High Level Airport",
    "iata_code": "YOJ",
    "icao_code": "CYOJ",
    "city": "High Level",
    "country": "CA",
    "country_name": "CA",
    "latitude": 58.62139892578125,
    "longitude": -117.16500091552734,
    "elevation_ft": 1110,
    "timezone": "America/Edmonton",
    "dst": "A",
    "type": "small_airport",
    "status": "active"
  },
  {
    "name": "Ottawa Macdonald-Cartier International Airport",
    "iata_code": "YOW",
    "icao_code": "CYOW",
    "city": "Ottawa",
    "country": "CA",
    "country_name": "CA",
    "latitude": 45.3224983215332,
    "longitude": -75.66919708251953,
    "elevation_ft": 374,
    "timezone": "America/Toronto",
    "dst": "A",
    "type": "large_airport",
    "status": "active"
  },
  {
    "name": "Prince Albert Glass Field",
    "iata_code": "YPA",
    "icao_code": "CYPA",
    "city": "Prince Albert",
    "country": "CA",
    "country_name": "CA",
    "latitude": 53.214199066199996,
    "longitude": -105.672996521,
    "elevation_ft": 1405,
    "timezone": "America/Regina",
    "dst": "N",
    "type": "small_airport",
    "status": "active"
  },
  {
    "name": "Peace River Airport",
    "iata_code": "YPE",
    "icao_code": "CYPE",
    "city": "Peace River",
    "country": "CA",
    "country_name": "CA",
    "latitude": 56.226898,
    "longitude": -117.446999,
    "elevation_ft": 1873,
    "timezone": "America/Edmonton",
    "dst": "A",
    "type": "small_airport",
    "status": "active"
  },
  {
    "name": "Southport Airport",
    "iata_code": "YPG",
    "icao_code": "CYPG",
    "city": "Portage-la-prairie",
    "country": "CA",
    "country_name": "CA",
    "latitude": 49.903099,
    "longitude": -98.273817,
    "elevation_ft": 885,
    "timezone": "America/Winnipeg",
    "dst": "A",
    "type": "small_airport",
    "status": "active"
  },
  {
    "name": "Pitt Meadows Airport",
    "iata_code": "\\N",
    "icao_code": "CYPK",
    "city": "Pitt Meadows",
    "country": "CA",
    "country_name": "CA",
    "latitude": 49.21609878540039,
    "longitude": -122.70999908447266,
    "elevation_ft": 11,
    "timezone": "America/Vancouver",
    "dst": "A",
    "type": "small_airport",
    "status": "active"
  },
  {
    "name": "Pickle Lake Airport",
    "iata_code": "YPL",
    "icao_code": "CYPL",
    "city": "Pickle Lake",
    "country": "CA",
    "country_name": "CA",
    "latitude": 51.4463996887207,
    "longitude": -90.21420288085938,
    "elevation_ft": 1267,
    "timezone": "America/Coral_Harbour",
    "dst": "A",
    "type": "small_airport",
    "status": "active"
  },
  {
    "name": "Port Menier Airport",
    "iata_code": "YPN",
    "icao_code": "CYPN",
    "city": "Port Menier",
    "country": "CA",
    "country_name": "CA",
    "latitude": 49.83639907836914,
    "longitude": -64.2885971069336,
    "elevation_ft": 167,
    "timezone": "America/Toronto",
    "dst": "A",
    "type": "small_airport",
    "status": "active"
  },
  {
    "name": "Peterborough Airport",
    "iata_code": "YPQ",
    "icao_code": "CYPQ",
    "city": "Peterborough",
    "country": "CA",
    "country_name": "CA",
    "latitude": 44.22999954223633,
    "longitude": -78.36329650878906,
    "elevation_ft": 628,
    "timezone": "America/Toronto",
    "dst": "A",
    "type": "small_airport",
    "status": "active"
  },
  {
    "name": "Prince Rupert Airport",
    "iata_code": "YPR",
    "icao_code": "CYPR",
    "city": "Prince Pupert",
    "country": "CA",
    "country_name": "CA",
    "latitude": 54.286098480199996,
    "longitude": -130.445007324,
    "elevation_ft": 116,
    "timezone": "America/Vancouver",
    "dst": "A",
    "type": "small_airport",
    "status": "active"
  },
  {
    "name": "Fort Chipewyan Airport",
    "iata_code": "YPY",
    "icao_code": "CYPY",
    "city": "Fort Chipewyan",
    "country": "CA",
    "country_name": "CA",
    "latitude": 58.7672004699707,
    "longitude": -111.11699676513672,
    "elevation_ft": 761,
    "timezone": "America/Edmonton",
    "dst": "A",
    "type": "small_airport",
    "status": "active"
  },
  {
    "name": "Muskoka Airport",
    "iata_code": "YQA",
    "icao_code": "CYQA",
    "city": "Muskoka",
    "country": "CA",
    "country_name": "CA",
    "latitude": 44.974700927734375,
    "longitude": -79.30329895019531,
    "elevation_ft": 925,
    "timezone": "America/Toronto",
    "dst": "A",
    "type": "small_airport",
    "status": "active"
  },
  {
    "name": "Quebec Jean Lesage International Airport",
    "iata_code": "YQB",
    "icao_code": "CYQB",
    "city": "Quebec",
    "country": "CA",
    "country_name": "CA",
    "latitude": 46.7911,
    "longitude": -71.393303,
    "elevation_ft": 244,
    "timezone": "America/Toronto",
    "dst": "A",
    "type": "large_airport",
    "status": "active"
  },
  {
    "name": "Red Deer Regional Airport",
    "iata_code": "YQF",
    "icao_code": "CYQF",
    "city": "Red Deer Industrial",
    "country": "CA",
    "country_name": "CA",
    "latitude": 52.18220138549805,
    "longitude": -113.89399719238281,
    "elevation_ft": 2968,
    "timezone": "America/Edmonton",
    "dst": "A",
    "type": "medium_airport",
    "status": "active"
  },
  {
    "name": "Windsor Airport",
    "iata_code": "YQG",
    "icao_code": "CYQG",
    "city": "Windsor",
    "country": "CA",
    "country_name": "CA",
    "latitude": 42.27560043334961,
    "longitude": -82.95559692382812,
    "elevation_ft": 622,
    "timezone": "America/Toronto",
    "dst": "A",
    "type": "small_airport",
    "status": "active"
  },
  {
    "name": "Watson Lake Airport",
    "iata_code": "YQH",
    "icao_code": "CYQH",
    "city": "Watson Lake",
    "country": "CA",
    "country_name": "CA",
    "latitude": 60.11640167236328,
    "longitude": -128.82200622558594,
    "elevation_ft": 2255,
    "timezone": "America/Vancouver",
    "dst": "A",
    "type": "small_airport",
    "status": "active"
  },
  {
    "name": "Kenora Airport",
    "iata_code": "YQK",
    "icao_code": "CYQK",
    "city": "Kenora",
    "country": "CA",
    "country_name": "CA",
    "latitude": 49.788299560546875,
    "longitude": -94.36309814453125,
    "elevation_ft": 1332,
    "timezone": "America/Winnipeg",
    "dst": "A",
    "type": "small_airport",
    "status": "active"
  },
  {
    "name": "Lethbridge County Airport",
    "iata_code": "YQL",
    "icao_code": "CYQL",
    "city": "Lethbridge",
    "country": "CA",
    "country_name": "CA",
    "latitude": 49.6302986145,
    "longitude": -112.800003052,
    "elevation_ft": 3048,
    "timezone": "America/Edmonton",
    "dst": "A",
    "type": "small_airport",
    "status": "active"
  },
  {
    "name": "Greater Moncton International Airport",
    "iata_code": "YQM",
    "icao_code": "CYQM",
    "city": "Moncton",
    "country": "CA",
    "country_name": "CA",
    "latitude": 46.11220169067383,
    "longitude": -64.67859649658203,
    "elevation_ft": 232,
    "timezone": "America/Halifax",
    "dst": "A",
    "type": "large_airport",
    "status": "active"
  },
  {
    "name": "Comox Airport",
    "iata_code": "YQQ",
    "icao_code": "CYQQ",
    "city": "Comox",
    "country": "CA",
    "country_name": "CA",
    "latitude": 49.71080017089844,
    "longitude": -124.88700103759766,
    "elevation_ft": 84,
    "timezone": "America/Vancouver",
    "dst": "A",
    "type": "small_airport",
    "status": "active"
  },
  {
    "name": "Regina International Airport",
    "iata_code": "YQR",
    "icao_code": "CYQR",
    "city": "Regina",
    "country": "CA",
    "country_name": "CA",
    "latitude": 50.43190002441406,
    "longitude": -104.66600036621094,
    "elevation_ft": 1894,
    "timezone": "America/Regina",
    "dst": "N",
    "type": "large_airport",
    "status": "active"
  },
  {
    "name": "Thunder Bay Airport",
    "iata_code": "YQT",
    "icao_code": "CYQT",
    "city": "Thunder Bay",
    "country": "CA",
    "country_name": "CA",
    "latitude": 48.37189865112305,
    "longitude": -89.32389831542969,
    "elevation_ft": 653,
    "timezone": "America/Toronto",
    "dst": "A",
    "type": "small_airport",
    "status": "active"
  },
  {
    "name": "Grande Prairie Airport",
    "iata_code": "YQU",
    "icao_code": "CYQU",
    "city": "Grande Prairie",
    "country": "CA",
    "country_name": "CA",
    "latitude": 55.1796989441,
    "longitude": -118.885002136,
    "elevation_ft": 2195,
    "timezone": "America/Edmonton",
    "dst": "A",
    "type": "small_airport",
    "status": "active"
  },
  {
    "name": "Yorkton Municipal Airport",
    "iata_code": "YQV",
    "icao_code": "CYQV",
    "city": "Yorkton",
    "country": "CA",
    "country_name": "CA",
    "latitude": 51.26470184326172,
    "longitude": -102.46199798583984,
    "elevation_ft": 1635,
    "timezone": "America/Regina",
    "dst": "N",
    "type": "medium_airport",
    "status": "active"
  },
  {
    "name": "North Battleford Airport",
    "iata_code": "YQW",
    "icao_code": "CYQW",
    "city": "North Battleford",
    "country": "CA",
    "country_name": "CA",
    "latitude": 52.76919937133789,
    "longitude": -108.24400329589844,
    "elevation_ft": 1799,
    "timezone": "America/Regina",
    "dst": "N",
    "type": "small_airport",
    "status": "active"
  },
  {
    "name": "Gander International Airport",
    "iata_code": "YQX",
    "icao_code": "CYQX",
    "city": "Gander",
    "country": "CA",
    "country_name": "CA",
    "latitude": 48.9369010925293,
    "longitude": -54.56809997558594,
    "elevation_ft": 496,
    "timezone": "America/St_Johns",
    "dst": "A",
    "type": "large_airport",
    "status": "active"
  },
  {
    "name": "Sydney / J.A. Douglas McCurdy Airport",
    "iata_code": "YQY",
    "icao_code": "CYQY",
    "city": "Sydney",
    "country": "CA",
    "country_name": "CA",
    "latitude": 46.1614,
    "longitude": -60.047798,
    "elevation_ft": 203,
    "timezone": "America/Halifax",
    "dst": "A",
    "type": "small_airport",
    "status": "active"
  },
  {
    "name": "Quesnel Airport",
    "iata_code": "YQZ",
    "icao_code": "CYQZ",
    "city": "Quesnel",
    "country": "CA",
    "country_name": "CA",
    "latitude": 53.026100158691406,
    "longitude": -122.51000213623047,
    "elevation_ft": 1789,
    "timezone": "America/Vancouver",
    "dst": "A",
    "type": "small_airport",
    "status": "active"
  },
  {
    "name": "Resolute Bay Airport",
    "iata_code": "YRB",
    "icao_code": "CYRB",
    "city": "Resolute",
    "country": "CA",
    "country_name": "CA",
    "latitude": 74.7169036865,
    "longitude": -94.9693984985,
    "elevation_ft": 215,
    "timezone": "America/Winnipeg",
    "dst": "A",
    "type": "small_airport",
    "status": "active"
  },
  {
    "name": "Rivière-du-Loup Airport",
    "iata_code": "YRI",
    "icao_code": "CYRI",
    "city": "Riviere Du Loup",
    "country": "CA",
    "country_name": "CA",
    "latitude": 47.764400482177734,
    "longitude": -69.58470153808594,
    "elevation_ft": 427,
    "timezone": "America/Toronto",
    "dst": "A",
    "type": "small_airport",
    "status": "active"
  },
  {
    "name": "Roberval Airport",
    "iata_code": "YRJ",
    "icao_code": "CYRJ",
    "city": "Roberval",
    "country": "CA",
    "country_name": "CA",
    "latitude": 48.52000045776367,
    "longitude": -72.2656021118164,
    "elevation_ft": 586,
    "timezone": "America/Toronto",
    "dst": "A",
    "type": "small_airport",
    "status": "active"
  },
  {
    "name": "Rocky Mountain House Airport",
    "iata_code": "YRM",
    "icao_code": "CYRM",
    "city": "Rocky Mountain House",
    "country": "CA",
    "country_name": "CA",
    "latitude": 52.4296989441,
    "longitude": -114.903999329,
    "elevation_ft": 3244,
    "timezone": "America/Edmonton",
    "dst": "A",
    "type": "small_airport",
    "status": "active"
  },
  {
    "name": "Rankin Inlet Airport",
    "iata_code": "YRT",
    "icao_code": "CYRT",
    "city": "Rankin Inlet",
    "country": "CA",
    "country_name": "CA",
    "latitude": 62.8114013672,
    "longitude": -92.1157989502,
    "elevation_ft": 94,
    "timezone": "America/Winnipeg",
    "dst": "A",
    "type": "small_airport",
    "status": "active"
  },
  {
    "name": "Sudbury Airport",
    "iata_code": "YSB",
    "icao_code": "CYSB",
    "city": "Sudbury",
    "country": "CA",
    "country_name": "CA",
    "latitude": 46.625,
    "longitude": -80.79889678955078,
    "elevation_ft": 1141,
    "timezone": "America/Toronto",
    "dst": "A",
    "type": "small_airport",
    "status": "active"
  },
  {
    "name": "Sherbrooke Airport",
    "iata_code": "YSC",
    "icao_code": "CYSC",
    "city": "Sherbrooke",
    "country": "CA",
    "country_name": "CA",
    "latitude": 45.4385986328125,
    "longitude": -71.69139862060547,
    "elevation_ft": 792,
    "timezone": "America/Toronto",
    "dst": "A",
    "type": "small_airport",
    "status": "active"
  },
  {
    "name": "Saint John Airport",
    "iata_code": "YSJ",
    "icao_code": "CYSJ",
    "city": "St. John",
    "country": "CA",
    "country_name": "CA",
    "latitude": 45.31610107421875,
    "longitude": -65.89029693603516,
    "elevation_ft": 357,
    "timezone": "America/Halifax",
    "dst": "A",
    "type": "small_airport",
    "status": "active"
  },
  {
    "name": "Fort Smith Airport",
    "iata_code": "YSM",
    "icao_code": "CYSM",
    "city": "Fort Smith",
    "country": "CA",
    "country_name": "CA",
    "latitude": 60.020301818847656,
    "longitude": -111.96199798583984,
    "elevation_ft": 671,
    "timezone": "America/Edmonton",
    "dst": "A",
    "type": "small_airport",
    "status": "active"
  },
  {
    "name": "Nanisivik Airport",
    "iata_code": "YSR",
    "icao_code": "CYSR",
    "city": "Nanisivik",
    "country": "CA",
    "country_name": "CA",
    "latitude": 72.982201,
    "longitude": -84.613602,
    "elevation_ft": 2106,
    "timezone": "America/Toronto",
    "dst": "A",
    "type": "small_airport",
    "status": "active"
  },
  {
    "name": "Summerside Airport",
    "iata_code": "YSU",
    "icao_code": "CYSU",
    "city": "Summerside",
    "country": "CA",
    "country_name": "CA",
    "latitude": 46.44060134887695,
    "longitude": -63.83359909057617,
    "elevation_ft": 56,
    "timezone": "America/Halifax",
    "dst": "A",
    "type": "small_airport",
    "status": "active"
  },
  {
    "name": "Sachs Harbour (David Nasogaluak Jr. Saaryuaq) Airport",
    "iata_code": "YSY",
    "icao_code": "CYSY",
    "city": "Sachs Harbour",
    "country": "CA",
    "country_name": "CA",
    "latitude": 71.9938964844,
    "longitude": -125.242996216,
    "elevation_ft": 282,
    "timezone": "America/Edmonton",
    "dst": "A",
    "type": "small_airport",
    "status": "active"
  },
  {
    "name": "Cape Dorset Airport",
    "iata_code": "YTE",
    "icao_code": "CYTE",
    "city": "Cape Dorset",
    "country": "CA",
    "country_name": "CA",
    "latitude": 64.2300033569,
    "longitude": -76.5267028809,
    "elevation_ft": 164,
    "timezone": "America/Toronto",
    "dst": "A",
    "type": "small_airport",
    "status": "active"
  },
  {
    "name": "Thompson Airport",
    "iata_code": "YTH",
    "icao_code": "CYTH",
    "city": "Thompson",
    "country": "CA",
    "country_name": "CA",
    "latitude": 55.80110168457031,
    "longitude": -97.86419677734375,
    "elevation_ft": 729,
    "timezone": "America/Winnipeg",
    "dst": "A",
    "type": "small_airport",
    "status": "active"
  },
  {
    "name": "CFB Trenton",
    "iata_code": "YTR",
    "icao_code": "CYTR",
    "city": "Trenton",
    "country": "CA",
    "country_name": "CA",
    "latitude": 44.118900299072266,
    "longitude": -77.5280990600586,
    "elevation_ft": 283,
    "timezone": "America/Toronto",
    "dst": "A",
    "type": "small_airport",
    "status": "active"
  },
  {
    "name": "Timmins/Victor M. Power",
    "iata_code": "YTS",
    "icao_code": "CYTS",
    "city": "Timmins",
    "country": "CA",
    "country_name": "CA",
    "latitude": 48.569698333699996,
    "longitude": -81.376701355,
    "elevation_ft": 967,
    "timezone": "America/Toronto",
    "dst": "A",
    "type": "small_airport",
    "status": "active"
  },
  {
    "name": "Billy Bishop Toronto City Centre Airport",
    "iata_code": "YTZ",
    "icao_code": "CYTZ",
    "city": "Toronto",
    "country": "CA",
    "country_name": "CA",
    "latitude": 43.627499,
    "longitude": -79.396202,
    "elevation_ft": 252,
    "timezone": "America/Toronto",
    "dst": "A",
    "type": "small_airport",
    "status": "active"
  },
  {
    "name": "Tuktoyaktuk Airport",
    "iata_code": "YUB",
    "icao_code": "CYUB",
    "city": "Tuktoyaktuk",
    "country": "CA",
    "country_name": "CA",
    "latitude": 69.43329620361328,
    "longitude": -133.0260009765625,
    "elevation_ft": 15,
    "timezone": "America/Edmonton",
    "dst": "A",
    "type": "small_airport",
    "status": "active"
  },
  {
    "name": "Montreal / Pierre Elliott Trudeau International Airport",
    "iata_code": "YUL",
    "icao_code": "CYUL",
    "city": "Montreal",
    "country": "CA",
    "country_name": "CA",
    "latitude": 45.4706001282,
    "longitude": -73.7407989502,
    "elevation_ft": 118,
    "timezone": "America/Toronto",
    "dst": "A",
    "type": "large_airport",
    "status": "active"
  },
  {
    "name": "Repulse Bay Airport",
    "iata_code": "YUT",
    "icao_code": "CYUT",
    "city": "Repulse Bay",
    "country": "CA",
    "country_name": "CA",
    "latitude": 66.5214004517,
    "longitude": -86.22470092770001,
    "elevation_ft": 80,
    "timezone": "America/Winnipeg",
    "dst": "A",
    "type": "small_airport",
    "status": "active"
  },
  {
    "name": "Hall Beach Airport",
    "iata_code": "YUX",
    "icao_code": "CYUX",
    "city": "Hall Beach",
    "country": "CA",
    "country_name": "CA",
    "latitude": 68.77610015869999,
    "longitude": -81.2425,
    "elevation_ft": 30,
    "timezone": "America/Toronto",
    "dst": "A",
    "type": "small_airport",
    "status": "active"
  },
  {
    "name": "Rouyn Noranda Airport",
    "iata_code": "YUY",
    "icao_code": "CYUY",
    "city": "Rouyn",
    "country": "CA",
    "country_name": "CA",
    "latitude": 48.20610046386719,
    "longitude": -78.83560180664062,
    "elevation_ft": 988,
    "timezone": "America/Toronto",
    "dst": "A",
    "type": "small_airport",
    "status": "active"
  },
  {
    "name": "La Ronge Airport",
    "iata_code": "YVC",
    "icao_code": "CYVC",
    "city": "La Ronge",
    "country": "CA",
    "country_name": "CA",
    "latitude": 55.151401519800004,
    "longitude": -105.262001038,
    "elevation_ft": 1242,
    "timezone": "America/Regina",
    "dst": "N",
    "type": "small_airport",
    "status": "active"
  },
  {
    "name": "Vermilion Airport",
    "iata_code": "YVG",
    "icao_code": "CYVG",
    "city": "Vermillion",
    "country": "CA",
    "country_name": "CA",
    "latitude": 53.355800628699996,
    "longitude": -110.823997498,
    "elevation_ft": 2025,
    "timezone": "America/Edmonton",
    "dst": "A",
    "type": "small_airport",
    "status": "active"
  },
  {
    "name": "Qikiqtarjuaq Airport",
    "iata_code": "YVM",
    "icao_code": "CYVM",
    "city": "Broughton Island",
    "country": "CA",
    "country_name": "CA",
    "latitude": 67.5457992554,
    "longitude": -64.03140258789999,
    "elevation_ft": 21,
    "timezone": "America/Toronto",
    "dst": "A",
    "type": "small_airport",
    "status": "active"
  },
  {
    "name": "Val-d'Or Airport",
    "iata_code": "YVO",
    "icao_code": "CYVO",
    "city": "Val D'or",
    "country": "CA",
    "country_name": "CA",
    "latitude": 48.0532989502,
    "longitude": -77.7827987671,
    "elevation_ft": 1107,
    "timezone": "America/Toronto",
    "dst": "A",
    "type": "small_airport",
    "status": "active"
  },
  {
    "name": "Kuujjuaq Airport",
    "iata_code": "YVP",
    "icao_code": "CYVP",
    "city": "Quujjuaq",
    "country": "CA",
    "country_name": "CA",
    "latitude": 58.096099853515625,
    "longitude": -68.4269027709961,
    "elevation_ft": 129,
    "timezone": "America/Toronto",
    "dst": "A",
    "type": "small_airport",
    "status": "active"
  },
  {
    "name": "Norman Wells Airport",
    "iata_code": "YVQ",
    "icao_code": "CYVQ",
    "city": "Norman Wells",
    "country": "CA",
    "country_name": "CA",
    "latitude": 65.28160095214844,
    "longitude": -126.7979965209961,
    "elevation_ft": 238,
    "timezone": "America/Edmonton",
    "dst": "A",
    "type": "small_airport",
    "status": "active"
  },
  {
    "name": "Vancouver International Airport",
    "iata_code": "YVR",
    "icao_code": "CYVR",
    "city": "Vancouver",
    "country": "CA",
    "country_name": "CA",
    "latitude": 49.193901062,
    "longitude": -123.183998108,
    "elevation_ft": 14,
    "timezone": "America/Vancouver",
    "dst": "A",
    "type": "large_airport",
    "status": "active"
  },
  {
    "name": "Buffalo Narrows Airport",
    "iata_code": "YVT",
    "icao_code": "CYVT",
    "city": "Buffalo Narrows",
    "country": "CA",
    "country_name": "CA",
    "latitude": 55.8418998718,
    "longitude": -108.417999268,
    "elevation_ft": 1423,
    "timezone": "America/Regina",
    "dst": "N",
    "type": "small_airport",
    "status": "active"
  },
  {
    "name": "Wiarton Airport",
    "iata_code": "YVV",
    "icao_code": "CYVV",
    "city": "Wiarton",
    "country": "CA",
    "country_name": "CA",
    "latitude": 44.7458,
    "longitude": -81.107201,
    "elevation_ft": 729,
    "timezone": "America/Toronto",
    "dst": "A",
    "type": "small_airport",
    "status": "active"
  },
  {
    "name": "Petawawa Airport",
    "iata_code": "YWA",
    "icao_code": "CYWA",
    "city": "Petawawa",
    "country": "CA",
    "country_name": "CA",
    "latitude": 45.95220184326172,
    "longitude": -77.31919860839844,
    "elevation_ft": 427,
    "timezone": "America/Toronto",
    "dst": "A",
    "type": "small_airport",
    "status": "active"
  },
  {
    "name": "Winnipeg / James Armstrong Richardson International Airport",
    "iata_code": "YWG",
    "icao_code": "CYWG",
    "city": "Winnipeg",
    "country": "CA",
    "country_name": "CA",
    "latitude": 49.909999847399995,
    "longitude": -97.2398986816,
    "elevation_ft": 783,
    "timezone": "America/Winnipeg",
    "dst": "A",
    "type": "large_airport",
    "status": "active"
  },
  {
    "name": "Wabush Airport",
    "iata_code": "YWK",
    "icao_code": "CYWK",
    "city": "Wabush",
    "country": "CA",
    "country_name": "CA",
    "latitude": 52.92190170288086,
    "longitude": -66.8644027709961,
    "elevation_ft": 1808,
    "timezone": "America/Halifax",
    "dst": "A",
    "type": "small_airport",
    "status": "active"
  },
  {
    "name": "Williams Lake Airport",
    "iata_code": "YWL",
    "icao_code": "CYWL",
    "city": "Williams Lake",
    "country": "CA",
    "country_name": "CA",
    "latitude": 52.1831016541,
    "longitude": -122.054000854,
    "elevation_ft": 3085,
    "timezone": "America/Vancouver",
    "dst": "A",
    "type": "small_airport",
    "status": "active"
  },
  {
    "name": "Wrigley Airport",
    "iata_code": "YWY",
    "icao_code": "CYWY",
    "city": "Wrigley",
    "country": "CA",
    "country_name": "CA",
    "latitude": 63.20940017700195,
    "longitude": -123.43699645996094,
    "elevation_ft": 489,
    "timezone": "America/Edmonton",
    "dst": "A",
    "type": "small_airport",
    "status": "active"
  },
  {
    "name": "Cranbrook/Canadian Rockies International Airport",
    "iata_code": "YXC",
    "icao_code": "CYXC",
    "city": "Cranbrook",
    "country": "CA",
    "country_name": "CA",
    "latitude": 49.610801696777,
    "longitude": -115.78199768066,
    "elevation_ft": 3082,
    "timezone": "America/Edmonton",
    "dst": "A",
    "type": "large_airport",
    "status": "active"
  },
  {
    "name": "Edmonton City Centre (Blatchford Field) Airport",
    "iata_code": "YXD",
    "icao_code": "CYXD",
    "city": "Edmonton",
    "country": "CA",
    "country_name": "CA",
    "latitude": 53.5724983215,
    "longitude": -113.521003723,
    "elevation_ft": 2202,
    "timezone": "America/Edmonton",
    "dst": "A",
    "type": "small_airport",
    "status": "active"
  },
  {
    "name": "Saskatoon John G. Diefenbaker International Airport",
    "iata_code": "YXE",
    "icao_code": "CYXE",
    "city": "Saskatoon",
    "country": "CA",
    "country_name": "CA",
    "latitude": 52.170799255371094,
    "longitude": -106.69999694824219,
    "elevation_ft": 1653,
    "timezone": "America/Regina",
    "dst": "N",
    "type": "large_airport",
    "status": "active"
  },
  {
    "name": "Medicine Hat Airport",
    "iata_code": "YXH",
    "icao_code": "CYXH",
    "city": "Medicine Hat",
    "country": "CA",
    "country_name": "CA",
    "latitude": 50.01890182495117,
    "longitude": -110.72100067138672,
    "elevation_ft": 2352,
    "timezone": "America/Edmonton",
    "dst": "A",
    "type": "small_airport",
    "status": "active"
  },
  {
    "name": "Fort St John Airport",
    "iata_code": "YXJ",
    "icao_code": "CYXJ",
    "city": "Fort Saint John",
    "country": "CA",
    "country_name": "CA",
    "latitude": 56.23809814453125,
    "longitude": -120.73999786376953,
    "elevation_ft": 2280,
    "timezone": "America/Dawson_Creek",
    "dst": "A",
    "type": "small_airport",
    "status": "active"
  },
  {
    "name": "Sioux Lookout Airport",
    "iata_code": "YXL",
    "icao_code": "CYXL",
    "city": "Sioux Lookout",
    "country": "CA",
    "country_name": "CA",
    "latitude": 50.11389923095703,
    "longitude": -91.9052963256836,
    "elevation_ft": 1258,
    "timezone": "America/Winnipeg",
    "dst": "A",
    "type": "small_airport",
    "status": "active"
  },
  {
    "name": "Pangnirtung Airport",
    "iata_code": "YXP",
    "icao_code": "CYXP",
    "city": "Pangnirtung",
    "country": "CA",
    "country_name": "CA",
    "latitude": 66.1449966431,
    "longitude": -65.71360015869999,
    "elevation_ft": 75,
    "timezone": "America/Toronto",
    "dst": "A",
    "type": "small_airport",
    "status": "active"
  },
  {
    "name": "Earlton (Timiskaming Regional) Airport",
    "iata_code": "YXR",
    "icao_code": "CYXR",
    "city": "Earlton",
    "country": "CA",
    "country_name": "CA",
    "latitude": 47.697400654599996,
    "longitude": -79.8473453522,
    "elevation_ft": 800,
    "timezone": "America/Toronto",
    "dst": "A",
    "type": "medium_airport",
    "status": "active"
  },
  {
    "name": "Prince George Airport",
    "iata_code": "YXS",
    "icao_code": "CYXS",
    "city": "Prince George",
    "country": "CA",
    "country_name": "CA",
    "latitude": 53.8894004822,
    "longitude": -122.679000854,
    "elevation_ft": 2267,
    "timezone": "America/Vancouver",
    "dst": "A",
    "type": "small_airport",
    "status": "active"
  },
  {
    "name": "Northwest Regional Airport Terrace-Kitimat",
    "iata_code": "YXT",
    "icao_code": "CYXT",
    "city": "Terrace",
    "country": "CA",
    "country_name": "CA",
    "latitude": 54.468498,
    "longitude": -128.576009,
    "elevation_ft": 713,
    "timezone": "America/Vancouver",
    "dst": "A",
    "type": "medium_airport",
    "status": "active"
  },
  {
    "name": "London Airport",
    "iata_code": "YXU",
    "icao_code": "CYXU",
    "city": "London",
    "country": "CA",
    "country_name": "CA",
    "latitude": 43.035599,
    "longitude": -81.1539,
    "elevation_ft": 912,
    "timezone": "America/Toronto",
    "dst": "A",
    "type": "small_airport",
    "status": "active"
  },
  {
    "name": "Abbotsford Airport",
    "iata_code": "YXX",
    "icao_code": "CYXX",
    "city": "Abbotsford",
    "country": "CA",
    "country_name": "CA",
    "latitude": 49.025299072265625,
    "longitude": -122.36100006103516,
    "elevation_ft": 195,
    "timezone": "America/Vancouver",
    "dst": "A",
    "type": "small_airport",
    "status": "active"
  },
  {
    "name": "Whitehorse / Erik Nielsen International Airport",
    "iata_code": "YXY",
    "icao_code": "CYXY",
    "city": "Whitehorse",
    "country": "CA",
    "country_name": "CA",
    "latitude": 60.7095985413,
    "longitude": -135.067001343,
    "elevation_ft": 2317,
    "timezone": "America/Vancouver",
    "dst": "A",
    "type": "large_airport",
    "status": "active"
  },
  {
    "name": "North Bay Jack Garland Airport",
    "iata_code": "YYB",
    "icao_code": "CYYB",
    "city": "North Bay",
    "country": "CA",
    "country_name": "CA",
    "latitude": 46.363602,
    "longitude": -79.422798,
    "elevation_ft": 1215,
    "timezone": "America/Toronto",
    "dst": "A",
    "type": "small_airport",
    "status": "active"
  },
  {
    "name": "Calgary International Airport",
    "iata_code": "YYC",
    "icao_code": "CYYC",
    "city": "Calgary",
    "country": "CA",
    "country_name": "CA",
    "latitude": 51.113899231,
    "longitude": -114.019996643,
    "elevation_ft": 3557,
    "timezone": "America/Edmonton",
    "dst": "A",
    "type": "large_airport",
    "status": "active"
  },
  {
    "name": "Smithers Airport",
    "iata_code": "YYD",
    "icao_code": "CYYD",
    "city": "Smithers",
    "country": "CA",
    "country_name": "CA",
    "latitude": 54.82469940185547,
    "longitude": -127.18299865722656,
    "elevation_ft": 1712,
    "timezone": "America/Vancouver",
    "dst": "A",
    "type": "small_airport",
    "status": "active"
  },
  {
    "name": "Fort Nelson Airport",
    "iata_code": "YYE",
    "icao_code": "CYYE",
    "city": "Fort Nelson",
    "country": "CA",
    "country_name": "CA",
    "latitude": 58.8363990784,
    "longitude": -122.597000122,
    "elevation_ft": 1253,
    "timezone": "America/Vancouver",
    "dst": "A",
    "type": "small_airport",
    "status": "active"
  },
  {
    "name": "Penticton Airport",
    "iata_code": "YYF",
    "icao_code": "CYYF",
    "city": "Penticton",
    "country": "CA",
    "country_name": "CA",
    "latitude": 49.46310043334961,
    "longitude": -119.60199737548828,
    "elevation_ft": 1129,
    "timezone": "America/Vancouver",
    "dst": "A",
    "type": "small_airport",
    "status": "active"
  },
  {
    "name": "Charlottetown Airport",
    "iata_code": "YYG",
    "icao_code": "CYYG",
    "city": "Charlottetown",
    "country": "CA",
    "country_name": "CA",
    "latitude": 46.290000915527344,
    "longitude": -63.12110137939453,
    "elevation_ft": 160,
    "timezone": "America/Halifax",
    "dst": "A",
    "type": "small_airport",
    "status": "active"
  },
  {
    "name": "Taloyoak Airport",
    "iata_code": "YYH",
    "icao_code": "CYYH",
    "city": "Spence Bay",
    "country": "CA",
    "country_name": "CA",
    "latitude": 69.5466995239,
    "longitude": -93.5766983032,
    "elevation_ft": 92,
    "timezone": "America/Edmonton",
    "dst": "A",
    "type": "small_airport",
    "status": "active"
  },
  {
    "name": "Victoria International Airport",
    "iata_code": "YYJ",
    "icao_code": "CYYJ",
    "city": "Victoria",
    "country": "CA",
    "country_name": "CA",
    "latitude": 48.646900177,
    "longitude": -123.426002502,
    "elevation_ft": 63,
    "timezone": "America/Vancouver",
    "dst": "A",
    "type": "large_airport",
    "status": "active"
  },
  {
    "name": "Lynn Lake Airport",
    "iata_code": "YYL",
    "icao_code": "CYYL",
    "city": "Lynn Lake",
    "country": "CA",
    "country_name": "CA",
    "latitude": 56.86389923095703,
    "longitude": -101.07599639892578,
    "elevation_ft": 1170,
    "timezone": "America/Winnipeg",
    "dst": "A",
    "type": "small_airport",
    "status": "active"
  },
  {
    "name": "Swift Current Airport",
    "iata_code": "YYN",
    "icao_code": "CYYN",
    "city": "Swift Current",
    "country": "CA",
    "country_name": "CA",
    "latitude": 50.291900634799994,
    "longitude": -107.691001892,
    "elevation_ft": 2680,
    "timezone": "America/Regina",
    "dst": "N",
    "type": "small_airport",
    "status": "active"
  },
  {
    "name": "Churchill Airport",
    "iata_code": "YYQ",
    "icao_code": "CYYQ",
    "city": "Churchill",
    "country": "CA",
    "country_name": "CA",
    "latitude": 58.739200592041016,
    "longitude": -94.06500244140625,
    "elevation_ft": 94,
    "timezone": "America/Winnipeg",
    "dst": "A",
    "type": "small_airport",
    "status": "active"
  },
  {
    "name": "Goose Bay Airport",
    "iata_code": "YYR",
    "icao_code": "CYYR",
    "city": "Goose Bay",
    "country": "CA",
    "country_name": "CA",
    "latitude": 53.3191986084,
    "longitude": -60.4258003235,
    "elevation_ft": 160,
    "timezone": "America/Halifax",
    "dst": "A",
    "type": "small_airport",
    "status": "active"
  },
  {
    "name": "St. John's International Airport",
    "iata_code": "YYT",
    "icao_code": "CYYT",
    "city": "St. John's",
    "country": "CA",
    "country_name": "CA",
    "latitude": 47.618598938,
    "longitude": -52.7518997192,
    "elevation_ft": 461,
    "timezone": "America/St_Johns",
    "dst": "A",
    "type": "large_airport",
    "status": "active"
  },
  {
    "name": "Kapuskasing Airport",
    "iata_code": "YYU",
    "icao_code": "CYYU",
    "city": "Kapuskasing",
    "country": "CA",
    "country_name": "CA",
    "latitude": 49.41389846801758,
    "longitude": -82.46749877929688,
    "elevation_ft": 743,
    "timezone": "America/Toronto",
    "dst": "A",
    "type": "small_airport",
    "status": "active"
  },
  {
    "name": "Armstrong Airport",
    "iata_code": "YYW",
    "icao_code": "CYYW",
    "city": "Armstrong",
    "country": "CA",
    "country_name": "CA",
    "latitude": 50.29029846191406,
    "longitude": -88.90969848632812,
    "elevation_ft": 1058,
    "timezone": "America/Toronto",
    "dst": "A",
    "type": "small_airport",
    "status": "active"
  },
  {
    "name": "Mont Joli Airport",
    "iata_code": "YYY",
    "icao_code": "CYYY",
    "city": "Mont Joli",
    "country": "CA",
    "country_name": "CA",
    "latitude": 48.60860061645508,
    "longitude": -68.20809936523438,
    "elevation_ft": 172,
    "timezone": "America/Toronto",
    "dst": "A",
    "type": "small_airport",
    "status": "active"
  },
  {
    "name": "Lester B. Pearson International Airport",
    "iata_code": "YYZ",
    "icao_code": "CYYZ",
    "city": "Toronto",
    "country": "CA",
    "country_name": "CA",
    "latitude": 43.6772003174,
    "longitude": -79.63059997559999,
    "elevation_ft": 569,
    "timezone": "America/Toronto",
    "dst": "A",
    "type": "large_airport",
    "status": "active"
  },
  {
    "name": "Downsview Airport",
    "iata_code": "YZD",
    "icao_code": "CYZD",
    "city": "Toronto",
    "country": "CA",
    "country_name": "CA",
    "latitude": 43.74250030517578,
    "longitude": -79.4655990600586,
    "elevation_ft": 652,
    "timezone": "America/Toronto",
    "dst": "A",
    "type": "small_airport",
    "status": "active"
  },
  {
    "name": "Gore Bay Manitoulin Airport",
    "iata_code": "YZE",
    "icao_code": "CYZE",
    "city": "Gore Bay",
    "country": "CA",
    "country_name": "CA",
    "latitude": 45.88529968261719,
    "longitude": -82.56780242919922,
    "elevation_ft": 635,
    "timezone": "America/Toronto",
    "dst": "A",
    "type": "small_airport",
    "status": "active"
  },
  {
    "name": "Yellowknife Airport",
    "iata_code": "YZF",
    "icao_code": "CYZF",
    "city": "Yellowknife",
    "country": "CA",
    "country_name": "CA",
    "latitude": 62.462799072265625,
    "longitude": -114.44000244140625,
    "elevation_ft": 675,
    "timezone": "America/Edmonton",
    "dst": "A",
    "type": "small_airport",
    "status": "active"
  },
  {
    "name": "Slave Lake Airport",
    "iata_code": "YZH",
    "icao_code": "CYZH",
    "city": "Slave Lake",
    "country": "CA",
    "country_name": "CA",
    "latitude": 55.2930984497,
    "longitude": -114.777000427,
    "elevation_ft": 1912,
    "timezone": "America/Edmonton",
    "dst": "A",
    "type": "small_airport",
    "status": "active"
  },
  {
    "name": "Sandspit Airport",
    "iata_code": "YZP",
    "icao_code": "CYZP",
    "city": "Sandspit",
    "country": "CA",
    "country_name": "CA",
    "latitude": 53.25429916379999,
    "longitude": -131.813995361,
    "elevation_ft": 21,
    "timezone": "America/Vancouver",
    "dst": "A",
    "type": "small_airport",
    "status": "active"
  },
  {
    "name": "Chris Hadfield Airport",
    "iata_code": "YZR",
    "icao_code": "CYZR",
    "city": "Sarnia",
    "country": "CA",
    "country_name": "CA",
    "latitude": 42.9994010925293,
    "longitude": -82.30889892578125,
    "elevation_ft": 594,
    "timezone": "America/Toronto",
    "dst": "A",
    "type": "small_airport",
    "status": "active"
  },
  {
    "name": "Port Hardy Airport",
    "iata_code": "YZT",
    "icao_code": "CYZT",
    "city": "Port Hardy",
    "country": "CA",
    "country_name": "CA",
    "latitude": 50.680599212646484,
    "longitude": -127.36699676513672,
    "elevation_ft": 71,
    "timezone": "America/Vancouver",
    "dst": "A",
    "type": "small_airport",
    "status": "active"
  },
  {
    "name": "Whitecourt Airport",
    "iata_code": "YZU",
    "icao_code": "CYZU",
    "city": "Whitecourt",
    "country": "CA",
    "country_name": "CA",
    "latitude": 54.14390182495117,
    "longitude": -115.78700256347656,
    "elevation_ft": 2567,
    "timezone": "America/Edmonton",
    "dst": "A",
    "type": "small_airport",
    "status": "active"
  },
  {
    "name": "Sept-Îles Airport",
    "iata_code": "YZV",
    "icao_code": "CYZV",
    "city": "Sept-iles",
    "country": "CA",
    "country_name": "CA",
    "latitude": 50.22330093383789,
    "longitude": -66.2656021118164,
    "elevation_ft": 180,
    "timezone": "America/Toronto",
    "dst": "A",
    "type": "small_airport",
    "status": "active"
  },
  {
    "name": "Teslin Airport",
    "iata_code": "YZW",
    "icao_code": "CYZW",
    "city": "Teslin",
    "country": "CA",
    "country_name": "CA",
    "latitude": 60.17279815673828,
    "longitude": -132.7429962158203,
    "elevation_ft": 2313,
    "timezone": "America/Vancouver",
    "dst": "A",
    "type": "small_airport",
    "status": "active"
  },
  {
    "name": "CFB Greenwood",
    "iata_code": "YZX",
    "icao_code": "CYZX",
    "city": "Greenwood",
    "country": "CA",
    "country_name": "CA",
    "latitude": 44.98440170288086,
    "longitude": -64.91690063476562,
    "elevation_ft": 92,
    "timezone": "America/Halifax",
    "dst": "A",
    "type": "small_airport",
    "status": "active"
  },
  {
    "name": "Faro Airport",
    "iata_code": "ZFA",
    "icao_code": "CZFA",
    "city": "Faro",
    "country": "CA",
    "country_name": "CA",
    "latitude": 62.20750045776367,
    "longitude": -133.37600708007812,
    "elevation_ft": 2351,
    "timezone": "America/Vancouver",
    "dst": "A",
    "type": "small_airport",
    "status": "active"
  },
  {
    "name": "Fort Mcpherson Airport",
    "iata_code": "ZFM",
    "icao_code": "CZFM",
    "city": "Fort Mcpherson",
    "country": "CA",
    "country_name": "CA",
    "latitude": 67.40750122070312,
    "longitude": -134.86099243164062,
    "elevation_ft": 116,
    "timezone": "America/Edmonton",
    "dst": "A",
    "type": "small_airport",
    "status": "active"
  },
  {
    "name": "Blida Airport",
    "iata_code": "QLD",
    "icao_code": "DAAB",
    "city": "Blida",
    "country": "XX",
    "country_name": "Algeria",
    "latitude": 36.50360107421875,
    "longitude": 2.8141698837280273,
    "elevation_ft": 535,
    "timezone": "Africa/Algiers",
    "dst": "N",
    "type": "small_airport",
    "status": "active"
  },
  {
    "name": "Bou Saada Airport",
    "iata_code": "BUJ",
    "icao_code": "DAAD",
    "city": "Bou Saada",
    "country": "XX",
    "country_name": "Algeria",
    "latitude": 35.33250045776367,
    "longitude": 4.206389904022217,
    "elevation_ft": 1506,
    "timezone": "Africa/Algiers",
    "dst": "N",
    "type": "small_airport",
    "status": "active"
  },
  {
    "name": "Soummam Airport",
    "iata_code": "BJA",
    "icao_code": "DAAE",
    "city": "Bejaja",
    "country": "XX",
    "country_name": "Algeria",
    "latitude": 36.7120018005,
    "longitude": 5.0699200630200005,
    "elevation_ft": 20,
    "timezone": "Africa/Algiers",
    "dst": "N",
    "type": "small_airport",
    "status": "active"
  },
  {
    "name": "Houari Boumediene Airport",
    "iata_code": "ALG",
    "icao_code": "DAAG",
    "city": "Algier",
    "country": "XX",
    "country_name": "Algeria",
    "latitude": 36.691001892089844,
    "longitude": 3.215409994125366,
    "elevation_ft": 82,
    "timezone": "Africa/Algiers",
    "dst": "N",
    "type": "small_airport",
    "status": "active"
  },
  {
    "name": "Djanet Inedbirene Airport",
    "iata_code": "DJG",
    "icao_code": "DAAJ",
    "city": "Djanet",
    "country": "XX",
    "country_name": "Algeria",
    "latitude": 24.292801,
    "longitude": 9.45244,
    "elevation_ft": 3176,
    "timezone": "Africa/Algiers",
    "dst": "N",
    "type": "small_airport",
    "status": "active"
  },
  {
    "name": "Boufarik Airport",
    "iata_code": "\\N",
    "icao_code": "DAAK",
    "city": "Boufarik",
    "country": "XX",
    "country_name": "Algeria",
    "latitude": 36.545799,
    "longitude": 2.87611,
    "elevation_ft": 335,
    "timezone": "Africa/Algiers",
    "dst": "N",
    "type": "small_airport",
    "status": "active"
  },
  {
    "name": "Reggane Airport",
    "iata_code": "\\N",
    "icao_code": "DAAN",
    "city": "Reggan",
    "country": "XX",
    "country_name": "Algeria",
    "latitude": 26.7101,
    "longitude": 0.285647,
    "elevation_ft": 955,
    "timezone": "Africa/Algiers",
    "dst": "N",
    "type": "small_airport",
    "status": "active"
  },
  {
    "name": "Illizi Takhamalt Airport",
    "iata_code": "VVZ",
    "icao_code": "DAAP",
    "city": "Illizi",
    "country": "XX",
    "country_name": "Algeria",
    "latitude": 26.7234992981,
    "longitude": 8.62265014648,
    "elevation_ft": 1778,
    "timezone": "Africa/Algiers",
    "dst": "N",
    "type": "small_airport",
    "status": "active"
  },
  {
    "name": "Ain Oussera Airport",
    "iata_code": "\\N",
    "icao_code": "DAAQ",
    "city": "Ain Oussera",
    "country": "XX",
    "country_name": "Algeria",
    "latitude": 35.52539825439453,
    "longitude": 2.8787100315093994,
    "elevation_ft": 2132,
    "timezone": "Africa/Algiers",
    "dst": "N",
    "type": "small_airport",
    "status": "active"
  },
  {
    "name": "Aguenar – Hadj Bey Akhamok Airport",
    "iata_code": "TMR",
    "icao_code": "DAAT",
    "city": "Tamanrasset",
    "country": "XX",
    "country_name": "Algeria",
    "latitude": 22.8115005493,
    "longitude": 5.45107984543,
    "elevation_ft": 4518,
    "timezone": "Africa/Algiers",
    "dst": "N",
    "type": "small_airport",
    "status": "active"
  },
  {
    "name": "Jijel Ferhat Abbas Airport",
    "iata_code": "GJL",
    "icao_code": "DAAV",
    "city": "Jijel",
    "country": "XX",
    "country_name": "Algeria",
    "latitude": 36.7951011658,
    "longitude": 5.87361001968,
    "elevation_ft": 36,
    "timezone": "Africa/Algiers",
    "dst": "N",
    "type": "small_airport",
    "status": "active"
  },
  {
    "name": "Mecheria Airport",
    "iata_code": "MZW",
    "icao_code": "DAAY",
    "city": "Mecheria",
    "country": "XX",
    "country_name": "Algeria",
    "latitude": 33.535900116,
    "longitude": -0.242353007197,
    "elevation_ft": 3855,
    "timezone": "Africa/Algiers",
    "dst": "N",
    "type": "small_airport",
    "status": "active"
  },
  {
    "name": "Relizane Airport",
    "iata_code": "\\N",
    "icao_code": "DAAZ",
    "city": "Relizane",
    "country": "XX",
    "country_name": "Algeria",
    "latitude": 35.752201,
    "longitude": 0.626272,
    "elevation_ft": 282,
    "timezone": "Africa/Algiers",
    "dst": "N",
    "type": "small_airport",
    "status": "active"
  },
  {
    "name": "Rabah Bitat Airport",
    "iata_code": "AAE",
    "icao_code": "DABB",
    "city": "Annaba",
    "country": "XX",
    "country_name": "Algeria",
    "latitude": 36.822201,
    "longitude": 7.809174,
    "elevation_ft": 16,
    "timezone": "Africa/Algiers",
    "dst": "N",
    "type": "small_airport",
    "status": "active"
  },
  {
    "name": "Mohamed Boudiaf International Airport",
    "iata_code": "CZL",
    "icao_code": "DABC",
    "city": "Constantine",
    "country": "XX",
    "country_name": "Algeria",
    "latitude": 36.2760009765625,
    "longitude": 6.620389938354492,
    "elevation_ft": 2265,
    "timezone": "Africa/Algiers",
    "dst": "N",
    "type": "large_airport",
    "status": "active"
  },
  {
    "name": "Cheikh Larbi Tébessi Airport",
    "iata_code": "TEE",
    "icao_code": "DABS",
    "city": "Tebessa",
    "country": "XX",
    "country_name": "Algeria",
    "latitude": 35.4315986633,
    "longitude": 8.12071990967,
    "elevation_ft": 2661,
    "timezone": "Africa/Algiers",
    "dst": "N",
    "type": "small_airport",
    "status": "active"
  },
  {
    "name": "Hassi R'Mel Airport",
    "iata_code": "HRM",
    "icao_code": "DAFH",
    "city": "Tilrempt",
    "country": "XX",
    "country_name": "Algeria",
    "latitude": 32.93040084838867,
    "longitude": 3.311539888381958,
    "elevation_ft": 2540,
    "timezone": "Africa/Algiers",
    "dst": "N",
    "type": "small_airport",
    "status": "active"
  },
  {
    "name": "Bou Chekif Airport",
    "iata_code": "TID",
    "icao_code": "DAOB",
    "city": "Tiaret",
    "country": "XX",
    "country_name": "Algeria",
    "latitude": 35.3410987854,
    "longitude": 1.46315002441,
    "elevation_ft": 3245,
    "timezone": "Africa/Algiers",
    "dst": "N",
    "type": "small_airport",
    "status": "active"
  },
  {
    "name": "Bou Sfer Airport",
    "iata_code": "\\N",
    "icao_code": "DAOE",
    "city": "Bou Sfer",
    "country": "XX",
    "country_name": "Algeria",
    "latitude": 35.73540115356445,
    "longitude": -0.8053889870643616,
    "elevation_ft": 187,
    "timezone": "Africa/Algiers",
    "dst": "N",
    "type": "small_airport",
    "status": "active"
  },
  {
    "name": "Tindouf Airport",
    "iata_code": "TIN",
    "icao_code": "DAOF",
    "city": "Tindouf",
    "country": "XX",
    "country_name": "Algeria",
    "latitude": 27.7003993988,
    "longitude": -8.167099952700001,
    "elevation_ft": 1453,
    "timezone": "Africa/Algiers",
    "dst": "N",
    "type": "small_airport",
    "status": "active"
  },
  {
    "name": "Ech Cheliff Airport",
    "iata_code": "CFK",
    "icao_code": "DAOI",
    "city": "Ech-cheliff",
    "country": "XX",
    "country_name": "Algeria",
    "latitude": 36.2126998901,
    "longitude": 1.33176994324,
    "elevation_ft": 463,
    "timezone": "Africa/Algiers",
    "dst": "N",
    "type": "small_airport",
    "status": "active"
  },
  {
    "name": "Tafaraoui Airport",
    "iata_code": "TAF",
    "icao_code": "DAOL",
    "city": "Oran",
    "country": "XX",
    "country_name": "Algeria",
    "latitude": 35.54240036010742,
    "longitude": -0.5322780013084412,
    "elevation_ft": 367,
    "timezone": "Africa/Algiers",
    "dst": "N",
    "type": "small_airport",
    "status": "active"
  },
  {
    "name": "Zenata – Messali El Hadj Airport",
    "iata_code": "TLM",
    "icao_code": "DAON",
    "city": "Tlemcen",
    "country": "XX",
    "country_name": "Algeria",
    "latitude": 35.0167007446,
    "longitude": -1.45000004768,
    "elevation_ft": 814,
    "timezone": "Africa/Algiers",
    "dst": "N",
    "type": "small_airport",
    "status": "active"
  },
  {
    "name": "Es Senia Airport",
    "iata_code": "ORN",
    "icao_code": "DAOO",
    "city": "Oran",
    "country": "XX",
    "country_name": "Algeria",
    "latitude": 35.6239013672,
    "longitude": -0.6211829781529999,
    "elevation_ft": 295,
    "timezone": "Africa/Algiers",
    "dst": "N",
    "type": "small_airport",
    "status": "active"
  },
  {
    "name": "Sidi Bel Abbes Airport",
    "iata_code": "BFW",
    "icao_code": "DAOS",
    "city": "Sidi Bel Abbes",
    "country": "XX",
    "country_name": "Algeria",
    "latitude": 35.1717987061,
    "longitude": -0.593275010586,
    "elevation_ft": 1614,
    "timezone": "Africa/Algiers",
    "dst": "N",
    "type": "small_airport",
    "status": "active"
  },
  {
    "name": "Ghriss Airport",
    "iata_code": "MUW",
    "icao_code": "DAOV",
    "city": "Ghriss",
    "country": "XX",
    "country_name": "Algeria",
    "latitude": 35.207698822021484,
    "longitude": 0.14714199304580688,
    "elevation_ft": 1686,
    "timezone": "Africa/Algiers",
    "dst": "N",
    "type": "small_airport",
    "status": "active"
  },
  {
    "name": "Touat Cheikh Sidi Mohamed Belkebir Airport",
    "iata_code": "AZR",
    "icao_code": "DAUA",
    "city": "Adrar",
    "country": "XX",
    "country_name": "Algeria",
    "latitude": 27.837600708007812,
    "longitude": -0.18641400337219238,
    "elevation_ft": 919,
    "timezone": "Africa/Algiers",
    "dst": "N",
    "type": "small_airport",
    "status": "active"
  },
  {
    "name": "Biskra Airport",
    "iata_code": "BSK",
    "icao_code": "DAUB",
    "city": "Biskra",
    "country": "XX",
    "country_name": "Algeria",
    "latitude": 34.793300628699996,
    "longitude": 5.73823022842,
    "elevation_ft": 289,
    "timezone": "Africa/Algiers",
    "dst": "N",
    "type": "small_airport",
    "status": "active"
  },
  {
    "name": "El Golea Airport",
    "iata_code": "ELG",
    "icao_code": "DAUE",
    "city": "El Golea",
    "country": "XX",
    "country_name": "Algeria",
    "latitude": 30.571300506591797,
    "longitude": 2.8595900535583496,
    "elevation_ft": 1306,
    "timezone": "Africa/Algiers",
    "dst": "N",
    "type": "small_airport",
    "status": "active"
  },
  {
    "name": "Noumérat - Moufdi Zakaria Airport",
    "iata_code": "GHA",
    "icao_code": "DAUG",
    "city": "Ghardaia",
    "country": "XX",
    "country_name": "Algeria",
    "latitude": 32.38410186767578,
    "longitude": 3.794110059738159,
    "elevation_ft": 1512,
    "timezone": "Africa/Algiers",
    "dst": "N",
    "type": "small_airport",
    "status": "active"
  },
  {
    "name": "Oued Irara Airport",
    "iata_code": "HME",
    "icao_code": "DAUH",
    "city": "Hassi Messaoud",
    "country": "XX",
    "country_name": "Algeria",
    "latitude": 31.673000335699996,
    "longitude": 6.140439987180001,
    "elevation_ft": 463,
    "timezone": "Africa/Algiers",
    "dst": "N",
    "type": "small_airport",
    "status": "active"
  },
  {
    "name": "In Salah Airport",
    "iata_code": "INZ",
    "icao_code": "DAUI",
    "city": "In Salah",
    "country": "XX",
    "country_name": "Algeria",
    "latitude": 27.250999450699997,
    "longitude": 2.51202011108,
    "elevation_ft": 896,
    "timezone": "Africa/Algiers",
    "dst": "N",
    "type": "small_airport",
    "status": "active"
  },
  {
    "name": "Touggourt Sidi Madhi Airport",
    "iata_code": "TGR",
    "icao_code": "DAUK",
    "city": "Touggourt",
    "country": "XX",
    "country_name": "Algeria",
    "latitude": 33.06779861450195,
    "longitude": 6.088669776916504,
    "elevation_ft": 279,
    "timezone": "Africa/Algiers",
    "dst": "N",
    "type": "small_airport",
    "status": "active"
  },
  {
    "name": "Laghouat Airport",
    "iata_code": "LOO",
    "icao_code": "DAUL",
    "city": "Laghouat",
    "country": "XX",
    "country_name": "Algeria",
    "latitude": 33.764400482199996,
    "longitude": 2.92833995819,
    "elevation_ft": 2510,
    "timezone": "Africa/Algiers",
    "dst": "N",
    "type": "small_airport",
    "status": "active"
  },
  {
    "name": "Timimoun Airport",
    "iata_code": "TMX",
    "icao_code": "DAUT",
    "city": "Timimoun",
    "country": "XX",
    "country_name": "Algeria",
    "latitude": 29.2371006012,
    "longitude": 0.276033014059,
    "elevation_ft": 1027,
    "timezone": "Africa/Algiers",
    "dst": "N",
    "type": "small_airport",
    "status": "active"
  },
  {
    "name": "Ain el Beida Airport",
    "iata_code": "OGX",
    "icao_code": "DAUU",
    "city": "Ouargla",
    "country": "XX",
    "country_name": "Algeria",
    "latitude": 31.917200088500977,
    "longitude": 5.412779808044434,
    "elevation_ft": 492,
    "timezone": "Africa/Algiers",
    "dst": "N",
    "type": "small_airport",
    "status": "active"
  },
  {
    "name": "In Aménas Airport",
    "iata_code": "IAM",
    "icao_code": "DAUZ",
    "city": "Zarzaitine",
    "country": "XX",
    "country_name": "Algeria",
    "latitude": 28.0515,
    "longitude": 9.64291,
    "elevation_ft": 1847,
    "timezone": "Africa/Algiers",
    "dst": "N",
    "type": "small_airport",
    "status": "active"
  },
  {
    "name": "Cadjehoun Airport",
    "iata_code": "COO",
    "icao_code": "DBBB",
    "city": "Cotonou",
    "country": "XX",
    "country_name": "Benin",
    "latitude": 6.357230186462402,
    "longitude": 2.384350061416626,
    "elevation_ft": 19,
    "timezone": "Africa/Porto-Novo",
    "dst": "N",
    "type": "small_airport",
    "status": "active"
  },
  {
    "name": "Ouagadougou Airport",
    "iata_code": "OUA",
    "icao_code": "DFFD",
    "city": "Ouagadougou",
    "country": "XX",
    "country_name": "Burkina Faso",
    "latitude": 12.3532,
    "longitude": -1.51242,
    "elevation_ft": 1037,
    "timezone": "Africa/Ouagadougou",
    "dst": "N",
    "type": "small_airport",
    "status": "active"
  },
  {
    "name": "Bobo Dioulasso Airport",
    "iata_code": "BOY",
    "icao_code": "DFOO",
    "city": "Bobo-dioulasso",
    "country": "XX",
    "country_name": "Burkina Faso",
    "latitude": 11.160099983215332,
    "longitude": -4.33096981048584,
    "elevation_ft": 1511,
    "timezone": "Africa/Ouagadougou",
    "dst": "N",
    "type": "small_airport",
    "status": "active"
  },
  {
    "name": "Kotoka International Airport",
    "iata_code": "ACC",
    "icao_code": "DGAA",
    "city": "Accra",
    "country": "XX",
    "country_name": "Ghana",
    "latitude": 5.605189800262451,
    "longitude": -0.16678600013256073,
    "elevation_ft": 205,
    "timezone": "Africa/Accra",
    "dst": "N",
    "type": "large_airport",
    "status": "active"
  },
  {
    "name": "Tamale Airport",
    "iata_code": "TML",
    "icao_code": "DGLE",
    "city": "Tamale",
    "country": "XX",
    "country_name": "Ghana",
    "latitude": 9.55718994140625,
    "longitude": -0.8632140159606934,
    "elevation_ft": 553,
    "timezone": "Africa/Accra",
    "dst": "N",
    "type": "small_airport",
    "status": "active"
  },
  {
    "name": "Wa Airport",
    "iata_code": "\\N",
    "icao_code": "DGLW",
    "city": "Wa",
    "country": "XX",
    "country_name": "Ghana",
    "latitude": 10.0826997756958,
    "longitude": -2.507689952850342,
    "elevation_ft": 1060,
    "timezone": "Africa/Accra",
    "dst": "N",
    "type": "small_airport",
    "status": "active"
  },
  {
    "name": "Sunyani Airport",
    "iata_code": "NYI",
    "icao_code": "DGSN",
    "city": "Sunyani",
    "country": "XX",
    "country_name": "Ghana",
    "latitude": 7.361830234527588,
    "longitude": -2.3287599086761475,
    "elevation_ft": 1014,
    "timezone": "Africa/Accra",
    "dst": "N",
    "type": "small_airport",
    "status": "active"
  },
  {
    "name": "Takoradi Airport",
    "iata_code": "TKD",
    "icao_code": "DGTK",
    "city": "Takoradi",
    "country": "XX",
    "country_name": "Ghana",
    "latitude": 4.896059989929199,
    "longitude": -1.7747600078582764,
    "elevation_ft": 21,
    "timezone": "Africa/Accra",
    "dst": "N",
    "type": "small_airport",
    "status": "active"
  },
  {
    "name": "Port Bouet Airport",
    "iata_code": "ABJ",
    "icao_code": "DIAP",
    "city": "Abidjan",
    "country": "XX",
    "country_name": "Cote d'Ivoire",
    "latitude": 5.261390209197998,
    "longitude": -3.9262900352478027,
    "elevation_ft": 21,
    "timezone": "Africa/Abidjan",
    "dst": "N",
    "type": "small_airport",
    "status": "active"
  },
  {
    "name": "Bouaké Airport",
    "iata_code": "BYK",
    "icao_code": "DIBK",
    "city": "Bouake",
    "country": "XX",
    "country_name": "Cote d'Ivoire",
    "latitude": 7.738800048828125,
    "longitude": -5.073669910430908,
    "elevation_ft": 1230,
    "timezone": "Africa/Abidjan",
    "dst": "N",
    "type": "small_airport",
    "status": "active"
  },
  {
    "name": "Daloa Airport",
    "iata_code": "DJO",
    "icao_code": "DIDL",
    "city": "Daloa",
    "country": "XX",
    "country_name": "Cote d'Ivoire",
    "latitude": 6.792809963226318,
    "longitude": -6.473189830780029,
    "elevation_ft": 823,
    "timezone": "Africa/Abidjan",
    "dst": "N",
    "type": "small_airport",
    "status": "active"
  },
  {
    "name": "Korhogo Airport",
    "iata_code": "HGO",
    "icao_code": "DIKO",
    "city": "Korhogo",
    "country": "XX",
    "country_name": "Cote d'Ivoire",
    "latitude": 9.38718032837,
    "longitude": -5.55666017532,
    "elevation_ft": 1214,
    "timezone": "Africa/Abidjan",
    "dst": "N",
    "type": "small_airport",
    "status": "active"
  },
  {
    "name": "Man Airport",
    "iata_code": "MJC",
    "icao_code": "DIMN",
    "city": "Man",
    "country": "XX",
    "country_name": "Cote d'Ivoire",
    "latitude": 7.272069931030273,
    "longitude": -7.58735990524292,
    "elevation_ft": 1089,
    "timezone": "Africa/Abidjan",
    "dst": "N",
    "type": "small_airport",
    "status": "active"
  },
  {
    "name": "San Pedro Airport",
    "iata_code": "SPY",
    "icao_code": "DISP",
    "city": "San Pedro",
    "country": "XX",
    "country_name": "Cote d'Ivoire",
    "latitude": 4.746719837188721,
    "longitude": -6.660820007324219,
    "elevation_ft": 26,
    "timezone": "Africa/Abidjan",
    "dst": "N",
    "type": "small_airport",
    "status": "active"
  },
  {
    "name": "Yamoussoukro Airport",
    "iata_code": "ASK",
    "icao_code": "DIYO",
    "city": "Yamoussoukro",
    "country": "XX",
    "country_name": "Cote d'Ivoire",
    "latitude": 6.9031701088,
    "longitude": -5.36558008194,
    "elevation_ft": 699,
    "timezone": "Africa/Abidjan",
    "dst": "N",
    "type": "small_airport",
    "status": "active"
  },
  {
    "name": "Nnamdi Azikiwe International Airport",
    "iata_code": "ABV",
    "icao_code": "DNAA",
    "city": "Abuja",
    "country": "XX",
    "country_name": "Nigeria",
    "latitude": 9.006790161132812,
    "longitude": 7.263169765472412,
    "elevation_ft": 1123,
    "timezone": "Africa/Lagos",
    "dst": "N",
    "type": "large_airport",
    "status": "active"
  },
  {
    "name": "Akure Airport",
    "iata_code": "AKR",
    "icao_code": "DNAK",
    "city": "Akure",
    "country": "XX",
    "country_name": "Nigeria",
    "latitude": 7.246739864349365,
    "longitude": 5.3010101318359375,
    "elevation_ft": 1100,
    "timezone": "Africa/Lagos",
    "dst": "N",
    "type": "small_airport",
    "status": "active"
  },
  {
    "name": "Benin Airport",
    "iata_code": "BNI",
    "icao_code": "DNBE",
    "city": "Benin",
    "country": "XX",
    "country_name": "Nigeria",
    "latitude": 6.316979885101318,
    "longitude": 5.5995001792907715,
    "elevation_ft": 258,
    "timezone": "Africa/Lagos",
    "dst": "N",
    "type": "small_airport",
    "status": "active"
  },
  {
    "name": "Margaret Ekpo International Airport",
    "iata_code": "CBQ",
    "icao_code": "DNCA",
    "city": "Calabar",
    "country": "XX",
    "country_name": "Nigeria",
    "latitude": 4.976019859313965,
    "longitude": 8.347200393676758,
    "elevation_ft": 210,
    "timezone": "Africa/Lagos",
    "dst": "N",
    "type": "large_airport",
    "status": "active"
  },
  {
    "name": "Akanu Ibiam International Airport",
    "iata_code": "ENU",
    "icao_code": "DNEN",
    "city": "Enugu",
    "country": "XX",
    "country_name": "Nigeria",
    "latitude": 6.474269866943359,
    "longitude": 7.561960220336914,
    "elevation_ft": 466,
    "timezone": "Africa/Lagos",
    "dst": "N",
    "type": "large_airport",
    "status": "active"
  },
  {
    "name": "Gusau Airport",
    "iata_code": "\\N",
    "icao_code": "DNGU",
    "city": "Gusau",
    "country": "XX",
    "country_name": "Nigeria",
    "latitude": 12.1717,
    "longitude": 6.69611,
    "elevation_ft": 1520,
    "timezone": "Africa/Lagos",
    "dst": "N",
    "type": "small_airport",
    "status": "active"
  },
  {
    "name": "Ibadan Airport",
    "iata_code": "IBA",
    "icao_code": "DNIB",
    "city": "Ibadan",
    "country": "XX",
    "country_name": "Nigeria",
    "latitude": 7.362460136413574,
    "longitude": 3.97832989692688,
    "elevation_ft": 725,
    "timezone": "Africa/Lagos",
    "dst": "N",
    "type": "small_airport",
    "status": "active"
  },
  {
    "name": "Ilorin International Airport",
    "iata_code": "ILR",
    "icao_code": "DNIL",
    "city": "Ilorin",
    "country": "XX",
    "country_name": "Nigeria",
    "latitude": 8.440210342407227,
    "longitude": 4.493919849395752,
    "elevation_ft": 1126,
    "timezone": "Africa/Lagos",
    "dst": "N",
    "type": "large_airport",
    "status": "active"
  },
  {
    "name": "Yakubu Gowon Airport",
    "iata_code": "JOS",
    "icao_code": "DNJO",
    "city": "Jos",
    "country": "XX",
    "country_name": "Nigeria",
    "latitude": 9.639829635620117,
    "longitude": 8.869050025939941,
    "elevation_ft": 4232,
    "timezone": "Africa/Lagos",
    "dst": "N",
    "type": "small_airport",
    "status": "active"
  },
  {
    "name": "Kaduna Airport",
    "iata_code": "KAD",
    "icao_code": "DNKA",
    "city": "Kaduna",
    "country": "XX",
    "country_name": "Nigeria",
    "latitude": 10.696000099182129,
    "longitude": 7.320109844207764,
    "elevation_ft": 2073,
    "timezone": "Africa/Lagos",
    "dst": "N",
    "type": "small_airport",
    "status": "active"
  },
  {
    "name": "Mallam Aminu International Airport",
    "iata_code": "KAN",
    "icao_code": "DNKN",
    "city": "Kano",
    "country": "XX",
    "country_name": "Nigeria",
    "latitude": 12.0476,
    "longitude": 8.52462,
    "elevation_ft": 1562,
    "timezone": "Africa/Lagos",
    "dst": "N",
    "type": "large_airport",
    "status": "active"
  },
  {
    "name": "Maiduguri International Airport",
    "iata_code": "MIU",
    "icao_code": "DNMA",
    "city": "Maiduguri",
    "country": "XX",
    "country_name": "Nigeria",
    "latitude": 11.855299949645996,
    "longitude": 13.080900192260742,
    "elevation_ft": 1099,
    "timezone": "Africa/Lagos",
    "dst": "N",
    "type": "large_airport",
    "status": "active"
  },
  {
    "name": "Makurdi Airport",
    "iata_code": "MDI",
    "icao_code": "DNMK",
    "city": "Makurdi",
    "country": "XX",
    "country_name": "Nigeria",
    "latitude": 7.70388,
    "longitude": 8.61394,
    "elevation_ft": 371,
    "timezone": "Africa/Lagos",
    "dst": "N",
    "type": "small_airport",
    "status": "active"
  },
  {
    "name": "Murtala Muhammed International Airport",
    "iata_code": "LOS",
    "icao_code": "DNMM",
    "city": "Lagos",
    "country": "XX",
    "country_name": "Nigeria",
    "latitude": 6.5773701667785645,
    "longitude": 3.321160078048706,
    "elevation_ft": 135,
    "timezone": "Africa/Lagos",
    "dst": "N",
    "type": "large_airport",
    "status": "active"
  },
  {
    "name": "Minna Airport",
    "iata_code": "MXJ",
    "icao_code": "DNMN",
    "city": "Minna",
    "country": "XX",
    "country_name": "Nigeria",
    "latitude": 9.652170181274414,
    "longitude": 6.462259769439697,
    "elevation_ft": 834,
    "timezone": "Africa/Lagos",
    "dst": "N",
    "type": "small_airport",
    "status": "active"
  },
  {
    "name": "Port Harcourt International Airport",
    "iata_code": "PHC",
    "icao_code": "DNPO",
    "city": "Port Hartcourt",
    "country": "XX",
    "country_name": "Nigeria",
    "latitude": 5.0154900550842285,
    "longitude": 6.94959020614624,
    "elevation_ft": 87,
    "timezone": "Africa/Lagos",
    "dst": "N",
    "type": "large_airport",
    "status": "active"
  },